osm_id;name;number;street;postal_code;city;country;country_code;lat;lon;website;email;phone;fax;tags;description;date_added;wikidata
4540234591;3 bis f;109;Avenue du Petit Barthélémy;13617;Aix-en-Provence;France;fr;43.521207;5.4398754;http://www.3bisf.com;contact@3bisf.com;33442161775;;"osm:museum;art:art contemporain";;44116,0076388889;
4388745689;A casa di Losari;;T 30;20226;Belgodère;France;fr;42.6387318;9.0076595;;;;;osm:museum;;43338,9393981481;
4426176194;À l'homme volant;35;Grande Rue;72300;Sablé-sur-Sarthe;France;fr;47.8396557;-0.3340427;;;33243950736;;"osm:museum;type:centre d'interpretation";;42644,4636574074;
7652598615;Abbadiale - Maison des arts;;Rue du Gabizos;65400;Arras-en-Lavedan;France;fr;42.9908258;-0.1280573;https://www.abbadiale.fr/;;33633170714;;osm:museum;;44120,0466782407;
121580330;Abbaye;;Rue de l'Abbaye;39210;Château-Chalon;France;fr;46.753866;5.6242957318903315;;;;;"osm:museum;art:architecture";;43102,5491898148;
427080450;Abbaye cistercienne de Fontenay;;D 32C;21500;Marmagne;France;fr;47.63997865;4.390199324045035;http://www.abbayedefontenay.com;info@abbayedefontenay.com;33380921500;;"osm:museum;art:architecture";;44135,4274074074;Q464918
250016053;Abbaye d'Arthous;;Route de l'Abbaye;40300;Hastingues;France;fr;43.527247;-1.122068373792949;http://arthous.landes.fr/;;33558730389;;"osm:museum;art:architecture";;44018,8086689815;Q2820503
625801255;Abbaye de Charlieu;;Allée Sunderland;42190;Charlieu;France;fr;46.157709;4.168722435064935;;;;;"osm:museum;art:architecture";;43523,7329976852;
436075969;Abbaye de Clairvaux (ancienne);;Rue de l'Abbaye;10310;Clairvaux;France;fr;48.146652149999994;4.788011534801129;https://www.abbayedeclairvaux.com/;;;;"osm:museum;art:architecture";;43529,2823148148;Q22915382
3024227704;Abbaye de Cluny;;Place du 11 Août 1944;71250;Cluny;France;fr;46.434715;4.6585294;http://www.cluny.fr/71/CLUNY/TOURISME/tourisme/index_tourisme.php;;33385591279;;"osm:museum;art:architecture";;44013,637662037;
198365247;Abbaye de Hambye;;D 258;50450;Percy;France;fr;48.9214732;-1.2645301275096525;;;;;"osm:museum;art:architecture";;43218,4310185185;Q334358
6743772888;Abbaye de la Celle;;Place des Ormeaux;83170;La Celle;France;fr;43.3939364;6.0395685;;;;;"osm:museum;art:architecture";;43702,5192013889;
176230366;Abbaye de la Grainetière;;Chemin du Tré;85500;Les Herbiers;France;fr;46.8302446;-1.0588843178187002;;;;;"osm:museum;art:architecture";;42140,834537037;
3165464028;Abbaye de Lagrasse;;D 41;11220;Lagrasse;France;fr;43.0911069;2.617131;;;;;"osm:museum;art:architecture";;41946,898136574;
422967478;Abbaye de Lagrasse (partie publique);;Rive Gauche;11220;Lagrasse;France;fr;43.0906641;2.617188320832193;http://www.abbayedelagrasse.com/;abbayedelagrasse@wanadoo.fr;33468431599;;"osm:museum;art:architecture";;43640,6648263889;
7141912820;Abbaye de l'Étoile;;D 2e;86210;Archigny;France;fr;46.6538856;0.7034222;https://data.datatourisme.gouv.fr/21/7d6d57fe-6ab0-300d-8864-2049a90d0492;;;;"osm:museum;art:architecture";;44080,0710763889;Q1775559
59127408;Abbaye de Moissac;1;Rue de l'Abbaye;82200;Moissac;France;fr;44.10574095;1.0849678812128933;;;;;"osm:museum;art:architecture";;43575,9574074074;
175721318;Abbaye de Saint-Jean d'Orbestier;;Rue du Petit Versailles;85180;Les Sables-d'Olonne;France;fr;46.468122699999995;-1.7296593860558875;;;;;"osm:museum;art:architecture";;43735,780474537;Q22962935
82095951;Abbaye du Relec;;D 111;29410;Plounéour-Ménez;France;fr;48.4457462;-3.8352663792247395;;;;;"osm:museum;art:architecture";;44105,4733796296;
82095928;Abbaye du Relec;;D 111;29410;Plounéour-Ménez;France;fr;48.44576995;-3.835132202591921;;;;;"osm:museum;art:architecture";;44105,4827546296;
65742344;Abbaye Sainte-Odile;;Rue de Préau;25110;Baume-les-Dames;France;fr;47.3521648;6.362361443730887;;;;;"osm:museum;art:architecture";;43666,9736921296;Q2820481
675635254;Abri de la Pinasse;;Rue des Pibaleurs;40480;Vieux-Boucau-les-Bains;France;fr;43.7850346;-1.4109380105843239;;;;;osm:museum;;44218,5070833333;
233951104;Abri du Zeiterholz;;Rue de la Forêt;57330;Entrange Cité;France;fr;49.4118419;6.118261902343752;;;;;osm:museum;Abri arrière de la ligne Maginot;43393,6571527778;Q2821917
3534127563;Académie des Miniatures et des petits goûters;16;Rue Rinaldi;81000;Albi;France;fr;43.9321421;2.1433601;http://academiedesminiatures.fr;;33563790098;;osm:museum;;42145,9224305556;
2006338406;Aconit;12;Rue Joseph Rey;38000;Grenoble;France;fr;45.1861012;5.7170417;;;;;osm:museum;;43394,4691550926;Q40002294
5057135621;Adresse du Printemps - Printemps de Septembre;1;Quai de la Daurade;31000;Toulouse;France;fr;43.5999152;1.4404471;https://www.printempsdeseptembre.com/;;33561142351;;osm:museum;;44123,5125231482;
8313179048;Aérorétro;;Route RN7 Nord;26140;Albon;France;fr;45.253788;4.8234064;http://www.aeroretro.fr/;;;;osm:museum;Ecomusée;44207,9547569444;
264497409;Aeroscopia;;Voie Lactée;31700;Blagnac;France;fr;43.6602262;1.3605570092974104;;;;;"osm:museum;type:musee technique et industriel";;42880,6864699074;Q15714017
205390076;Ailes Anciennes Toulouse;4;Rue André Béteille;31700;Blagnac;France;fr;43.657146499999996;1.3594270023615183;;;;;osm:museum;Sauve et restaure une collection d'appareils (avions, hélicoptères, planeurs et moteurs) qu'elle présente au public.;44219,7911921296;
1125740122;Alexandre Brongniart;;Esplanade Milne Edwards;75005;Paris;France;fr;48.8423314;2.3566143;;;;;osm:museum;;42876,9434375;
190223550;Ambulants Postaux Ferroviaires;;Rue Gabriel Péri;62590;Oignies;France;fr;50.4737707;2.9962033941801978;;;;;osm:museum;;43707,7540625;
758324962;Amphoralis;;Chemin de Halage;11590;Sallèles-d'Aude;France;fr;43.273517;2.9369963132911447;;;;;osm:museum;;43966,7204050926;Q23640596
280768259;Ancien abri du marin (1906) actuel musée des Sénans;;Quai des Paimpolais;29990;Île-de-Sein;France;fr;48.0378513;-4.8498995975425565;;;;;osm:museum;;43360,8968865741;Q2845768
1871903921;Ancien atelier de produits résineux;;Rue de la Mairie;40430;Luxey;France;fr;44.2631256;-0.5171912;https://www.landes-tourisme.info/atelier-des-produits-resineux-1646-a.html;;33558080139;;"osm:museum;type:musee technique et industriel";;44029,191099537;Q22920457
60970330;Ancien château de Brumath;;Cour du Château;67170;Brumath;France;fr;48.73167925;7.709614923200409;;;;;"osm:museum;art:architecture";;43810,896412037;Q2240427
96471022;Ancien couvent des Ursulines;;Avenue Aristide Briand;29300;Quimperlé;France;fr;47.86960875;-3.5474559459022004;;;;;osm:museum;;43926,6960300926;Q22926430
81595115;Ancien Evêché;;Rue de l'Académie;66000;Perpignan;France;fr;42.6997636;2.899907079125928;;;;;osm:museum;;43951,614212963;
3143891747;Ancien moulin à huile;;D 1;6910;Roquestéron;France;fr;43.8736396;7.0065115;;;;;osm:museum;;41934,6984490741;
122634394;Ancien musée municipal de la céramique;;Rue de la République;17100;La Chapelle-des-Pots;France;fr;45.759300499999995;-0.5418913023177842;https://fr.wikipedia.org/wiki/Mus%C3%A9e_de_la_c%C3%A9ramique_saintongeaise;;;;osm:museum;Fermé en 2016;44021,8825462963;
102446728;Ancienne abbaye de Maubuisson;;Rue Alexandre Prachay;95310;Saint-Ouen-l'Aumône;France;fr;49.0462435;2.1167169471488467;;;;;"osm:museum;art:architecture";;42859,8633680556;Q915291
6961490340;Ancienne centrale hydroélectrique;;Route de Prés Clos;38740;Valjouffrey;France;fr;44.8721553;6.0274847;;;;;osm:museum;;43779,4488310185;
72558969;Ancienne école;;Rue du Campanile;5350;Arvieux;France;fr;44.79225055;6.730459429632983;;;;;osm:museum;;43695,8665972222;
301679558;Ancienne église Saint-Genest;;D 15;19500;Curemonte;France;fr;45.01380495;1.745469149596828;;;;;osm:museum;;43050,5366898148;Q22951022
4534581423;Ancienne église Saint-Jean;;Rue Droite;12500;Espalion;France;fr;44.5212051;2.7625183;;;;;osm:museum;;44156,3303240741;
2460059095;Ancienne Féculerie;1200;D 44;88240;Épinal;France;fr;48.0506368;6.2494926;www.moulingentrey.fr;moulin.gentrey@orange.fr;33329399256;;osm:museum;;42259,9141782407;
148037828;Ancienne gare;;Allée des Tilleuls;60350;Pierrefonds;France;fr;49.348938950000004;2.9715990082610264;;;;;osm:museum;;43052,8774189815;Q1991017
193058303;Ancienne malterie de la distillerie Claeyssens;;Rue de la Distillerie;59118;Wambrechies;France;fr;50.6877379;3.052866767857144;;;;;osm:museum;;42875,6453703704;Q22979778
5606468110;Ancienne Prison Royale;;Rue de la Prison;61800;Tinchebray;France;fr;48.7644741;-0.7290986;;;;;osm:museum;;43229,4078125;
58860965;Ancienne Scierie du Haut Fer;;D 424;67420;Ranrupt;France;fr;48.37906529999999;7.193284349607877;;;;;"osm:museum;type:musee technique et industriel";;44074,724537037;
5663863512;Anciennes Carrières;;Place des Moineaux;95300;Pontoise;France;fr;49.0506428;2.0982521;;;;;"osm:museum;type:musee technique et industriel";;43357,7666666667;
3294543361;Anciens Elèves (Musée);;Rue Notre-Dame des Champs;75006;Paris;France;fr;48.8454353;2.3277854;;;;;osm:museum;;42021,610162037;
68365990;Antenne du musée de la résistance et de la déportation du Lot;35;Rue Émile Zola;46100;Figeac;France;fr;44.60888165;2.036142554426079;;;;;osm:museum;;43310,6380902778;
90640718;Aponia;6;Avenue Montrichard;94350;Villiers-sur-Marne;France;fr;48.83175;2.5455191752205346;;;;;osm:museum;;44137,8146412037;
3594399913;Apothicairerie de Bazas;;Rue du Docteur Marcel Martin;33430;Bazas;France;fr;44.4334146;-0.2088146;;;;;"osm:museum;type:musee technique et industriel";;43187,9985648148;
1455969021;Apothicairerie de l’Hôtel Dieu;;Rue du Docteur Zamenhof;49150;Baugé-en-Anjou;France;fr;47.5435586;-0.0995455;;;;;"osm:museum;type:musee technique et industriel";;41119,6791203704;
2427436141;Apothicairerie de l'Hôtel-Dieu;;Boulevard de Brou;1000;Bourg-en-Bresse;France;fr;46.2013576;5.2331309;;;;;"osm:museum;type:musee technique et industriel";;43003,2165740741;Q16010419
2601095426;Apothicairerie de Montluel;;Rue Neuve;1120;Montluel;France;fr;45.8501952;5.055645;;;;;"osm:museum;type:musee technique et industriel";;43648,6280787037;Q2845788
113365405;Aquarium;;Rue du Professeur Jolyet;33120;Arcachon;France;fr;44.6632905;-1.1634731355422128;;;;;"osm:museum;type:musee d'histoire naturelle";;42169,6600810185;
83720926;Aquarium;191;Rue Saint-Albin;59500;Douai;France;fr;50.374179;3.0766883617667133;;;;;"osm:museum;type:musee d'histoire naturelle";;41243,7299884259;
76402893;Aquarium municipal;;Avenue du Casino;59240;Dunkerque;France;fr;51.0461367;2.3909496296998407;;;;;"osm:museum;type:musee d'histoire naturelle";;41776,6210763889;
3300330927;Aquascope;;La Léré;65170;Vielle-Aure;France;fr;42.8381713;0.3352873;;;;;"osm:museum;type:musee d'histoire naturelle";;42024,5892824074;
520424049;Aquaterra;;Rue Henri Barbusse;62320;Rouvroy;France;fr;50.4044395;2.9266672664643174;https://www.agglo-henincarvin.fr/Sorties/Aquaterra;;;;"osm:museum;type:musee d'histoire naturelle";;43996,9368287037;
7638286185;Arboretum de la forêt de Brosse;;D 508;63560;Neuf-Église;France;fr;46.1202255;2.8584098;;;;;"osm:museum;type:centre d'interpretation";;44002,7384027778;
1806089384;Arche des métiers;;Impasse de l'Airette;7160;Le Cheylard;France;fr;44.9046197;4.4241214;http://www.arche-des-metiers.com/;;33475202456;;"osm:museum;type:centre d'interpretation";;42106,5321296296;
4542685707;Archéa;56;Rue de Paris;95380;Louvres;France;fr;49.041052;2.5072634;http://archea.roissypaysdefrance.fr;;33134090102;;"osm:museum;type:centre d'interpretation";;42717,9671875;Q2860590
7612588840;Archéocrypte Sainte Sigolène;9;Route de Contet;81150;Lagrave;France;fr;43.8982843;1.9944287;;;;;"osm:museum;art:prehistoire;type:musee archeologique";;43993,6844212963;
2660068691;Archéodrome de Beaune;;Aire de Beaune-Tailly;21190;Merceuil;France;fr;46.9630363;4.834653;;;;;"osm:museum;art:prehistoire;type:musee archeologique";;43003,2197800925;Q2860599
62868310;Archéolab;;CR 38;37160;Abilly;France;fr;46.9375531;0.7391556045616257;;;;;"osm:museum;art:prehistoire;type:musee archeologique";;41279,4644791667;
4151050868;Archéoscope;;Grande Rue;50170;Le Mont-Saint-Michel;France;fr;48.6361067;-1.5098847;;info@archeoscope-montsaintmichel.fr;33233890185;;"osm:museum;art:prehistoire;type:musee archeologique";;42487,5632291666;
78706456;Archives Nationales du Monde du Travail;;Rue de Lannoy;59100;Roubaix;France;fr;50.6900037;3.1789706154419815;http://www.archivesnationales.culture.gouv.fr/camt/;;33320653800;;osm:museum;;43321,7556828704;Q2860557
534586525;Ardéche Miniatures;;Chemin du Vivier;7130;Soyons;France;fr;44.8756268;4.8443765;http://www.ardeche-miniatures.com/;;33475609658;;osm:museum;;42106,5321296296;
8308497814;Ardelaine Musée Vivant de la Laine;;D 8;7190;Saint-Pierreville;France;fr;44.8140757;4.4854293;;;;;osm:museum;;44206,5796875;
174843284;Argileum;;Rue de l'Aire;34150;Saint-Jean-de-Fos;France;fr;43.702552100000005;3.551233135466105;;;;;osm:museum;La Maison de la Poterie;44115,689537037;
2203224873;ARHome;113;Cours Berriat;38000;Grenoble;France;fr;45.1885122;5.7092746;http://museeindustriel.fr/;;;;osm:museum;;43797,6708217593;
270477996;Arromanches 360;;Avenue Amiral Mountbatten;14117;Arromanches-les-Bains;France;fr;49.338637;-0.617804;;;;;"osm:museum;type:musee d'histoire";;43430,3252430556;
69832863;Arsenal de l'Abbaye Saint-Jean-des-Vignes;;Rue Saint-Jean;2200;Soissons;France;fr;49.376166850000004;3.3247311491018943;http://www.tourisme-soissons.fr/Loisirs-et-Activites/Musees-et-patrimoine/Arsenal-de-l-Abbaye-Saint-Jean-des-Vignes;;;;"osm:museum;art:architecture";;43549,5831365741;
145062763;Art gallery;;Corniche Bonaparte;83150;Bandol;France;fr;43.128024100000005;5.750201259259256;;;;;"osm:museum;art:art contemporain";;42387,5087384259;
2486352415;Art Ludique - Le Musée;34;Quai d'Austerlitz;75013;Paris;France;fr;48.8405179;2.3703276;http://www.artludique.com;info@artludique.com;;;osm:museum;;42785,3938194444;Q16303874
468094166;ASM Expérience;;Rue du Clos-Four;63100;Clermont-Ferrand;France;fr;45.790350849999996;3.107306853452289;;;;;osm:museum;;43000,4187152778;
2434018565;Association Ascomemo;;Rue du Docteur Gaston Viville;57300;Hagondange;France;fr;49.2523756;6.1539849;http://ascomemo.chez.com/;;;;osm:museum;;42545,7663310185;
5825880179;Association Francis Jammes;;Avenue Francis Jammes;64300;Orthez;France;fr;43.485539;-0.76521;http://www.francis-jammes.com;;;;"osm:museum;gender:musee d'homme";;43323,968275463;
55503399;Atelier Brancusi;;Place Georges Pompidou;75004;Paris;France;fr;48.8613894;2.351982021342076;;;;;"osm:museum;gender:musee d'homme;type:atelier d'artiste";;43529,7792361111;Q60058273
894166170;Atelier Cézanne;;Avenue Paul Cézanne;13626;Aix-en-Provence;France;fr;43.538403;5.4462542;http://www.atelier-cezanne.com;;33442210653;;"osm:museum;gender:musee d'homme;type:atelier d'artiste";;43952,7390393519;Q754053
2155914030;Atelier de l'abeille de Chavignon;;Rue Leon Paquin;2000;Chavignon;France;fr;49.4793711;3.5334427;;;;;"osm:museum;type:musee technique et industriel";;41320,5591782407;
5830659002;Atelier des Tisserands et de la Charentaise;;Route de Terre Rouge;24360;Varaignes;France;fr;45.5979102;0.530863;;;;;"osm:museum;type:musee technique et industriel";;43325,9536226852;
1353908103;Atelier du Cuivre;;Rue aux Mezeaux;50800;Villedieu-les-Poêles;France;fr;48.8408213;-1.2202824;http://www.atelierducuivre.fr/;;33233513185;;"osm:museum;type:musee technique et industriel";;42603,2310648148;
113288753;Atelier du peintre Jean-François Millet;;Grande Rue;77630;Barbizon;France;fr;48.444363499999994;2.6079493715277855;;;;;"osm:museum;gender:musee d'homme;type:atelier d'artiste";;44072,5672337963;Q22922306
3514797418;Atelier et conservatoire des Meilleurs Ouvriers de France;4;Rue Jean Itard;42000;Saint-Étienne;France;fr;45.4557141;4.3813463;http://ateliers-conservatoire-mof.com/;;;;"osm:museum;type:musee technique et industriel";;43822,666400463;
68424837;Atelier Foujita;;Route de Gif;91190;Villiers-le-Bâcle;France;fr;48.7263371;2.123155053827074;;;;;"osm:museum;gender:musee d'homme;type:atelier d'artiste";;41671,9703819444;
5066109921;Atelier Gabrielle;;Rue Gabrielle;75018;Paris;France;fr;48.885735;2.340911;;;;;osm:museum;;42976,5289467593;
2703428029;Atelier Grognard;;Avenue du Château de la Malmaison;92500;Rueil-Malmaison;France;fr;48.8737321;2.1687097;http://www.mairie-rueilmalmaison.fr/rueil-pratique/culture-tourisme/atelier-grognard;expositions.ateliergrognard@mairie-rueilmalmaison.fr;;;"osm:museum;type:musee technique et industriel";;43031,0765162037;
4426151222;Atelier Malicot;11;Rue Carnot;72300;Sablé-sur-Sarthe;France;fr;47.8409942;-0.3341984;http://ateliermalicot.wixsite.com/ateliermalicot;;33243621110;;"osm:museum;type:musee technique et industriel";;42988,4328819444;
5830304035;Atelier Mattelon;;Rue Richan;69004;Lyon;France;fr;45.7801248;4.8353898;https://www.lyon-france.com/Je-decouvre-Lyon/culture-et-musees/Musees/atelier-de-tissage-mattelon;;;;"osm:museum;type:musee technique et industriel";;43870,4504398148;
7643750639;Atelier Musée de la Terre de Puycheny;;Sentier de Puycheny;87800;Saint-Hilaire-les-Places;France;fr;45.6023843;1.1562776;;;;;"osm:museum;type:musee technique et industriel";;44004,6947106481;
240781256;Atelier Pacific;;Rue Émile Zola;62590;Oignies;France;fr;50.473389;2.9990829741379343;;;;;"osm:museum;type:musee technique et industriel";;41553,5331944444;
705056183;Atelier Parisien d'Urbanisme;9;Rue Agrippa d'Aubigné;75004;Paris;France;fr;48.8503084;2.3623814;;;;;osm:museum;;41341,997025463;
1482301115;Atelier Typographique;;Rue de la Fontaine;45770;Saran;France;fr;47.9514254;1.8760286;;;;;"osm:museum;type:musee technique et industriel";;40843,6427662037;
7041729437;Atelier-musée de l'imprimerie;40;Avenue du Général Patton;45330;Pithiviers;France;fr;48.2987687;2.3870482;http://a-mi.fr/;contact@a-mi.fr;33238332267;;"osm:museum;type:musee technique et industriel";;43808,7189236111;
636023615;Atelier-musée Louis Leygue;;Rue des Venages;41100;Naveil;France;fr;47.7939429;1.0312301;;;;;"osm:museum;gender:musee d'homme;type:atelier d'artiste";;40220,8946412037;
5612504221;Ateliers Loire;16;Rue d'Ouarville;29300;Lèves;France;fr;48.466301;1.4841748;http://www.ateliers-loire.fr;;33237212071;;"osm:museum;gender:musee d'homme;type:atelier d'artiste";;43269,6447685185;
155132134;Au Carrefour du Monde;;Rue de l'Abbé François Gouray;44160;Pontchâteau;France;fr;47.441783099999995;-2.1378981849999974;;;;;osm:museum;;42926,853912037;
6537187284;Au siècle passé;;Chemin de la Halte;44440;Teillé;France;fr;47.4613509;-1.2818262;;;;;osm:museum;;43626,677662037;
156604787;Auberge des Soeurs Moisy;;Rue de Dessous;61250;Saint-Céneri-le-Gérei;France;fr;48.379309;-0.052988704545454415;;;;;osm:museum;;43864,9175347222;Q22997336
6620864935;Aubette 1928;;Place Kléber;67003;Strasbourg;France;fr;48.5838791;7.7460817;;;;;osm:museum;;44092,5939236111;Q55206209
672308999;Auditoire de Joinville;;Petite Rue de l'Auditoire;52300;Joinville;France;fr;48.442842600000006;5.13754899877438;;;;;osm:museum;;43518,6083564815;
8049779937;Autocars Anciens de France;;Route de Lauterbourg;67160;Altenstadt;France;fr;49.023395;7.9867559;;;;;osm:museum;;44131,4180439815;
456419025;Autour du Moulin de Raoul;;D 218;7530;Saint-Joseph-des-Bancs;France;fr;44.7318577;4.415844803713081;https://moulinderaoul.jimdofree.com/;;;;osm:museum;;44210,4613773148;
160986644;Aux Anciens Commerces;;Impasse du Vieux Château;49700;Doué-en-Anjou;France;fr;47.1961795;-0.3008574556818183;http://anciens-commerces.fr/;;;;osm:museum;;43855,8505092593;
390655407;Aux Musées Réunis;;Rue Thibault Chabrand;95240;Cormeilles-en-Parisis;France;fr;48.9763425;2.198720601216023;;;;;osm:museum;;43563,634849537;
404860195;Aux Saveurs des Ardennes;;Rue du Grand Ban;8000;La Francheville;France;fr;49.7255425;4.715581787262957;https://www.auxsaveursdardennes.com/;;33324576399;;osm:museum;spécialités charcutières des Ardennes;44008,9541087963;
27589401;Base sous-marine de Bordeaux;;Boulevard Alfred Daney;33000;Bordeaux;France;fr;44.87035875;-0.5588541579739654;http://www.bordeaux.fr/o271;;33556399445;;osm:museum;Abri bétonné pour sous-marins allemands de la Seconde Guerre mondiale;44092,8840046296;Q3631797
91360882;Bastide Les Coustètes;;Route de Cheyran;4150;Simiane-la-Rotonde;France;fr;44.00236595;5.572778157660878;;;;;osm:museum;;42192,0574884259;
3428551567;Bastideum;;Rue Saint-Joseph;24540;Monpazier;France;fr;44.679961;0.8953955;;;;;osm:museum;;42094,6480902778;
315707277;Bataille de Poitiers de 732;;Chemin de la Baudette;86210;Vouneuil-sur-Vienne;France;fr;46.73472255;0.5007300500000005;;;;;osm:museum;;43232,9542013889;
3902882362;Bâteau-lavoir Saint-Julien;;Quai Paul Boudet;53000;Laval;France;fr;48.0663291;-0.7674074;;;;;osm:museum;;43744,4641550926;Q20972508
4565441493;Bateaux-musées;;Boulevard Camille Réaud;29100;Ploaré;France;fr;48.0931365;-4.3341842;;;;;osm:museum;;43688,0046412037;
722201929;Bâtiment M - Musée des moulages Empereur Antonin;;Avenue du Val de Montferrand;34090;Montpellier;France;fr;43.631963049999996;3.870209865994627;;;;;osm:museum;;44098,6457523148;
115572393;Batterie d'Azeville;;Chemin du Mont d'Azzeville;50310;Azeville;France;fr;49.46182195;-1.307148092262398;;;;;osm:museum;;44058,7709259259;Q2891700
227061885;Batterie de Crisbecq;;D 69;50310;Saint-Marcouf;France;fr;49.4795391;-1.2970349059615784;;;;;osm:museum;;44079,7778587962;Q325370
2715619563;Batterie du Roule;;Montée des Résistants;50100;Cherbourg-en-Cotentin;France;fr;49.6304653;-1.6148446;http://www.cherbourgtourisme.com/decouvrir/visites-en-cotentin/lieux-de-visites/318613-la-batterie-du-roule;;;;osm:museum;;44157,6523148148;
1267467881;Batteries du Mont Canisy;;Chemin du Mont Canisy;14910;Benerville-sur-Mer;France;fr;49.3382088;0.0426931;;;;;osm:museum;;40663,7436574074;
5525293587;Beffroi de Lille;;Place Augustin Laurent;59000;Lille;France;fr;50.6306211;3.0697166;https://www.lilletourism.com/visite-libre-du-beffroi-de-l-hotel-de-ville.html;;33891562004;;"osm:museum;aart:architecture";Inscrit au patrimoine mondial de l'UNESCO, le beffroi de l'Hôtel de Ville domine Lille du haut de ses 104 mètres ! Une fois les 100 premières marches gravies, montez en ascenseur (ou à pied pour les plus courageux) jusqu'au sommet du beffroi...;43549,3788425926;
3843161465;Belvédère du Pont du Diable;;Avenue du Pont;43100;Vieille-Brioude;France;fr;45.2608552;3.4076398;;;;;osm:museum;;42956,7678472222;
344183733;Bernardaud;;Avenue Albert Thomas;87100;Limoges;France;fr;45.8349166;1.2450677;https://www.bernardaud.com/;;;;osm:museum;;43699,6271759259;
1317668195;Bibliothèque Multi-Média;;Rue de l'Église;5460;Briançon;France;fr;44.794437;6.9283008;;;;;"osm:museum;type:bibliotheque";;40703,9098263889;
145362143;Bibliothèque-Musée de la ville de Toulon;;Rue Paulin Guérin;83097;Toulon;France;fr;43.1262585;5.927515453663794;;;;;"osm:museum;type:bibliotheque";;41345,0338541667;
1426281644;Bibliothèque-Musée de l'Opéra;8;Rue Scribe;75009;Paris;France;fr;48.871882;2.331212;https://www.bnf.fr/;;33153793747;;"osm:museum;type:bibliotheque";;43534,871099537;Q2717848
181221386;Bibracte;;D 274;71990;Glux-en-Glenne;France;fr;46.932576600000004;4.047379209063909;;;;;"osm:museum;art:prehistoire;type:musee archeologique";;43159,3461805556;
263175718;Blockhaus 39-45;;Rue des Corsaires;14600;Honfleur;France;fr;49.417556000000005;0.2421244999999927;;;;;osm:museum;;43466,6346412037;
638296084;Boucher de Perthes;;Rue Gontier Patin;80100;Abbeville;France;fr;50.1071737;1.8333893;http://www.abbeville.fr/loisirs/musee-boucher-de-perthes.html;;33322240849;;osm:museum;;44031,7588425925;Q3329099
161695198;Boucle Ferroviaire;4;Place de l'Église;69870;Lamure-sur-Azergues;France;fr;46.0617928;4.493093423666666;;;;;osm:museum;;44059,0117708333;
19856722;Bourse de Commerce — Pinault Collection;2;Rue de Viarmes;75001;Paris;France;fr;48.86282475;2.342835093137255;https://www.boursedecommerce.fr;info@boursedecommerce.fr;33155046060;;"osm:museum;art:art contemporain;type:fondation";;44227,833599537;Q691375
4828705432;Boutique du Musée de la Poste;;Villa Marie Vassilieff;75015;Paris;France;fr;48.8434128;2.320792;http://www.ladressemuseedelaposte.fr;;;;osm:museum;travaux 2017 boutique 21 avenue du Maine;42856,8912615741;Q2445818
3375289052;Boutique Souvenirs du Petit Musée de Guignol;;Place du Gouvernement;69005;Lyon;France;fr;45.7639034;4.8281374;http://www.vieuxlyonsouvenirs.com;;33478370167;;osm:museum;;44166,6143518519;
1125740351;Buffon;;Esplanade Milne Edwards;75005;Paris;France;fr;48.8421274;2.3567338;;;;;osm:museum;;42876,9434375;
6768555180;Bunker 638;;Impasse Raffanel;34300;Agde;France;fr;43.28858;3.4381286;;;;;"osm:museum;type:musee d'histoire";;43711,346087963;
219045638;C.H.E.N.E. - Musée de la Nature;12;Rue du Musée;76190;Allouville-Bellefosse;France;fr;49.583107999999996;0.6644205532787073;http://chene.asso.fr/;"chene.raynald@orange.fr;asso.chene@wanadoo.fr";33235960654;;osm:museum;;42904,0403703704;
240488958;Cafetières et Cie;;Impasse des Clos Vieux;72500;La Flèche;France;fr;47.692043999999996;0.41805583644613653;;;;;osm:museum;;43927,0869444444;
112483372;CAIRN Centre d'art;10;Montée Bernard Dellacasagrande;4005;Digne-les-Bains;France;fr;44.1097494;6.228019582517481;;;;;"osm:museum;type:centre d'art";;44219,7354976852;
330977448;Calvados Boulard;;Le Moulin;14130;Coquainvilliers;France;fr;49.200281000000004;0.20806061412193538;http://www.calvados-boulard.com/;;;;osm:museum;;42151,9127430556;
6449079185;Calvados Experience;;Route de Trouville;14130;Pont-l'Évêque;France;fr;49.2938873;0.1870286;;;;;osm:museum;;43590,3946296296;
66604805;"Canot ""Papa Poydenot""";;Rue des Naufragés du 23 Mai 1925;29760;Penmarc'h;France;fr;47.7980576;-4.373453763153136;http://www.papapoydenot.fr/;;;;osm:museum;;43261,7709722222;
237577376;Cap Loire;20;Rue d'Anjou;49570;Montjean-sur-Loire;France;fr;47.389806;-0.8642001446687363;;;;;osm:museum;;43275,3248263889;
154309547;Cap Sciences;20;Quai de Bacalan;33000;Bordeaux;France;fr;44.859638000000004;-0.5542041893687635;http://www.cap-sciences.net/;;33556010707;;"osm:museum;type:musee de sciences";Centre de Culture Scientifique, Technique et Industrielle Région Aquitaine;43758,6547337963;Q16535900
117456213;CAPC - Musée d'art contemporain de Bordeaux;;Rue Foy;33000;Bordeaux;France;fr;44.84864035;-0.5721571062499995;http://www.capc-bordeaux.fr/;;33556008150;;"osm:museum;art:art contemporain";;44176,7107407407;Q17391423
166282585;Carnuta, maison de l'Homme et de la Forêt;;Rue du 19 Mars 1962;72500;Jupilles;France;fr;47.790539;0.41335663602941125;;;;;osm:museum;;41098,4466898148;
5653467722;Carrefour du lin;4;Rue Cacheleu;76560;Doudeville;France;fr;49.7213571;0.7830922;;;;;osm:museum;;43251,5076273148;
686538869;Carrière troglodytique de Vignemont;;Rue des Roches;37600;Loches;France;fr;47.123177;1.0006958;;;;;osm:museum;;41154,9898842593;
240632378;Carrière Wellington;;Rue du Temple;62000;Arras;France;fr;50.27982645;2.7836385749959867;http://www.explorearras.com;;33321512695;;osm:museum;;44228,755162037;
62898231;Casa de l'Albera;;Place des Castillans;66700;Argelès-sur-Mer;France;fr;42.5468808;3.0220793846491243;;;;;osm:museum;;42577,4579976852;
6532275988;Casa di Roccapina;;T 40;;Sartène;France;fr;41.4987943;8.9488349;;;;;osm:museum;;43623,7455555556;
5457862543;Casa Pairal;;Place de Verdun;66000;Perpignan;France;fr;42.7005957;2.8941031;;;;;osm:museum;;43919,7006365741;
96176679;Casa San Martin;113;Grande Rue;62200;Boulogne-sur-Mer;France;fr;50.724681000000004;1.6095944438202268;;;33321315465;;osm:museum;;43025,6946875;
4366548794;Casanabe;17;Rue Capdebat;64800;Pardies-Piétat;France;fr;43.2170514;-0.301738;;;;;osm:museum;;42607,7700462962;
2428275935;Casemate de Neunhoffen;;D 853;67110;Dambach;France;fr;49.010951;7.625265;;;;;"osm:museum;type:musee d'histoire";;41508,7735300926;
2422702771;Casemate Rieffel;;Rue de l'Indre;67250;Oberrœdern;France;fr;48.9204458;7.9816784;;;;;"osm:museum;type:musee d'histoire";Visitable un dimanche / mois ou sur demande;42329,3250578704;
4366549495;Cassou;45;Route des Pyrénées;64510;Baliros;France;fr;43.2255778;-0.3056781;;;;;osm:museum;;42607,7722106481;
8313178929;Castanea - Espace découverte de la Châtaigne d'Ardèche;;Rue de Jales;7260;Joyeuse;France;fr;44.4793376;4.2394023;https://www.castanea-ardeche.com/;;;;osm:museum;Ecomusée;44207,9547569444;
6481595914;Castrum vetus;;Montée des Ruines;13220;Châteauneuf-les-Martigues;France;fr;43.3806286;5.1634343;https://castrum-vetus.fr/musee.php;castrum-vetus@neuf.fr;33442798156;;osm:museum;;44064,433287037;
493870538;Catacombes de Paris;1;Avenue du Colonel Henri Rol Tanguy;75014;Paris;France;fr;48.8337437;2.3322959;http://www.catacombes.paris.fr/;;33143224763;;"osm:museum;type:musee d'histoire";;44121,5225462963;Q28924
65309666;Cathédrale Saint-Caprais;;Rue Raspail;47000;Agen;France;fr;44.2067828;0.6193124721518986;;;;;osm:museum;;43369,4040856482;Q2942319
52674879;Cathédrale Vieux-Saint-Vincent;;Place Saint-Vincent;71000;Saint-Clément;France;fr;46.3063381;4.834603621219365;;;;;osm:museum;;43682,5287962963;Q2942523
1708677196;Cathédraloscope;4;Place de la Cathédrale;35120;Dol-de-Bretagne;France;fr;48.5502196;-1.7560901;;;33299483530;;osm:museum;;43851,5711226852;
88613610;Caumont Centre d'art;3;Rue Joseph Cabassol;13100;Aix-en-Provence;France;fr;43.52602495;5.449142101237053;;;;;"osm:museum;type:centre d'art";;42859,9133217593;Q3145788
2235477859;Cave touristique de Panzoult;;Chemin du Carroi de la Chapelle au Carroi du Moulin de Panzoult;37220;Panzoult;France;fr;47.1515227;0.4014168;;;;;osm:museum;;41362,8753472222;
6126712437;Caveau de Saint-Pothin;;Montée Saint-Barthélémy;69005;Lyon;France;fr;45.7600362;4.8231111;;;;;osm:museum;;43443,7384837963;
362989700;Caverne du dragon;;Chemin des Dames;2160;Oulches-la-Vallée-Foulon;France;fr;49.441415500000005;3.732523545454359;https://www.chemindesdames.fr/index.php/fr/le-chemin-des-dames/visiter/les-lieux-de-memoire/les-principaux-sites/le-monument-de-napoleon;;;;osm:museum;;43620,073287037;Q2943295
363997991;Caves de Chartreuse;;Boulevard Edgard Kofler;38500;Voiron;France;fr;45.361850450000006;5.597949463910183;;;;;osm:museum;;42623,6879976852;
2242124020;Caves Roquefort Société;2;Avenue François Galtier;12250;Roquefort-sur-Soulzon;France;fr;43.9745977;2.9927119;http://www.visite-roquefort-societe.com;visitedescaves@roquefort-societe.com;33565585438;;osm:museum;;43325,5501967593;
43979682;CCNRB - Collectif FAIRE;;Rue Saint-Melaine;35706;Rennes;France;fr;48.114585950000006;-1.6758513898571952;http://www.museedeladanse.org/;;;;osm:museum;;43959,4049189814;Q30738572
1288283780;Cellier aux Moines;;D 13a;10200;Colombé-le-Sec;France;fr;48.2548589;4.7840036;;;;;osm:museum;;40823,7509953704;
4540240792;Cellule 516;280;Boulevard Michelet;13008;Marseille;France;fr;43.2608478;5.3962644;;;33953504465;;osm:museum;;43031,0766782407;
565512973;Centrale Hydroélèctrique EDF de Pragnères;;D 921;65120;Gèdre;France;fr;42.82045815;0.010245823795424361;;;;;"osm:museum;type:centre d'interpretation";;44011,7339583333;
791284542;Centre abbé Pierre Emmaüs;;Route d'Emmaus;76690;Touffreville;France;fr;49.6055246;1.2194584854820965;http://www.centre-abbe-pierre-emmaus.org/;contact@centre-abbe-pierre-emmaus.org;33235238776;;osm:museum;;43952,9208217593;Q2944890
7736158452;Centre archéologique du Var;;Rue Frédéric Mireur;83300;Draguignan;France;fr;43.5390928;6.4637821;;;;;"osm:museum:art:prehistoire;type:musee archeologique";;44034,4200462963;
1841297326;Centre Arthurien;;Chaussée du Grand Étang;56430;Concoret;France;fr;48.0701929;-2.1726029;;;;;osm:museum;;42988,2434143519;Q2945350
4697494389;Centre Beautour;;Rond-Point de Beautour;85000;La Roche-sur-Yon;France;fr;46.6625;-1.3578737;http://www.beautour-paysdelaloire.fr/;;33251243240;;osm:museum;;42996,7563425926;
1787252941;Centre Culturel de Méréville;;Place des Halles;91660;Étampes;France;fr;48.3190519;2.0896603;;;;;osm:museum;;41080,9409837963;
1606575931;Centre Culturel Suisse;;Impasse des Arbalétriers;75003;Paris;France;fr;48.8585275;2.3597684;;;;;osm:museum;;43974,9802662037;Q2945014
630964208;Centre Culturel Valery Larbaud;;Rue Maréchal Foch;3200;Vichy;France;fr;46.122569;3.4230504;;;;;osm:museum;;43800,9530208333;
261936526;Centre d’accueil et d’interprétation du mémorial de Thiepval;;Rue de l'Ancre;80300;Thiepval;France;fr;50.0522878;2.688154285294118;;;;;"osm:museum;type:centre d'interpretation";;43015,0002083333;
6611507382;Centre d’interprétation de l’Auld Alliance;2;Place de la Résistance;18700;Aubigny-sur-Nère;France;fr;47.4889299;2.4406941;https://www.my-loire-valley.com/2019/07/ouverture-du-centre-dinterpretation-de-lauld-alliance-a-aubigny-sur-nere;;33248584020;;"osm:museum;type:centre d'interpretation";;43805,8146759259;
7734137126;Centre d'art Bastille;;Chemin de la Bastille;38000;Grenoble;France;fr;45.198717;5.7243158;https://cab-grenoble.net/;;;;"osm:museum;art:art contemporain;type:centre d'art";;44033,7136111111;Q2945052
3283530890;Centre d'art contemporain;;Parvis;33320;Eysines;France;fr;44.8808406;-0.6534833;;;;;"osm:museum;art:art contemporain;type:centre d'art";;43793,5183101852;
73567494;Centre d'art contemporain;;Grande Gargouille;5100;Briançon;France;fr;44.899043250000005;6.642999620201785;;;;;"osm:museum;art:art contemporain;type:centre d'art";Immeuble dit ancienne maison du Roi, actuellement Palais de Justice;44064,6069907407;Q22998407
3560397693;Centre d'art contemporain de Pontmain;;Rue de la Grange;53220;Pontmain;France;fr;48.4384796;-1.0578134;;;;;"osm:museum;art:art contemporain;type:centre d'art";;42155,4440509259;
161471196;Centre d'art contemporain du Creux de l'Enfer;85;Avenue Joseph Claussat;63300;Thiers;France;fr;45.850232500000004;3.5491094636627905;;;;;"osm:museum;art:art contemporain;type:centre d'art";;42420,2225;
249066761;Centre d'art contemporain du Fort du Bruissin;;Rue du Château d'Eau;69340;Francheville;France;fr;45.7305319;4.7385345;;;;;"osm:museum;art:art contemporain;type:centre d'art;gender:musee d'homme";;41071,2742592593;
581046544;Centre d'art contemporain Raymond Farbos;;Rue Saint-Vincent-de-Paul;40000;Mont-de-Marsan;France;fr;43.8900817;-0.4990523;;;;;"osm:museum;art:art contemporain;type:centre d'art;gender:musee d'homme";;42942,436400463;
81673281;Centre d'art contemporain Walter Benjamin;;Place du Pont d'en Vestit;66000;Perpignan;France;fr;42.69738895;2.8922030600664907;;;;;"osm:museum;art:art contemporain;type:centre d'art";;43926,6984606481;
67980512;Centre d'art et d'histoire André Auclair;;Avenue Marcel Cachin;7350;Cruas;France;fr;44.65467645;4.762797905316787;http://www.ot-cruas.fr/musee_auclair.php;;;;"osm:museum:;type:centre d'art;gender:musee d'homme";;42316,9573032407;
5525538038;Centre d'Arts Plastiques et Visuels - Wazemmes;4;Rue des Sarrazins;59000;Lille;France;fr;50.6256295;3.0512744;https://www.lille.fr/Centre-d-Arts-plastiques-et-visuels;;33320547184;;"osm:museum;art:art contemporain;gender:musee d'homme";Le Centre d'Arts plastiques et visuels est le centre d'art de la ville de Lille qui offre aux enfants, adolescents et adultes de nos communes une formation exigeante tant pour l'initiation que pour le perfectionnement de leur pratique artistique dans plus;44211,5855092593;
733089899;Centre de conservation du Louvre;;Rue du Docteur Piette;62800;Liévin;France;fr;50.4276148;2.794245721634508;https://www.louvre.fr/centre-de-conservation-du-louvre;;;;osm:museum;;43747,9250810185;Q18413921
82851348;Centre de conservation et d’étude René Rémond;133;Rue René Maire;39000;Lons-le-Saunier;France;fr;46.68428995;5.579084214778739;http://www.musees-franchecomte.com/index.php?p=180&art_id=562;musees@lonslesaunier.fr;33384861173;;osm:museum;Le Musée est temporairement fermé au public. Les chercheurs et étudiants peuvent néanmoins avoir accès aux collections et à la bibliothèque, sur rendez-vous, du lundi au vendredi, de 8h à 12h et de 14h à 17h.;43940,5848958333;
383108810;Centre de Création Contemporaine Olivier Debré (CCCOD);;Jardin François 1er;37000;Tours;France;fr;47.395685400000005;0.6852291797779333;http://www.cccod.fr;;;;"osm:museum;art:art contemporain";;43553,8100578704;
67786025;Centre de Culture Scientifique, Technique et Industrielle;;Place de Hercé;53000;Laval;France;fr;48.0657933;-0.7704053486072425;http://www.ccsti-laval.org/;;33243494781;;"osm:museum;type:musee de sciences";;44038,9076736111;Q3330275
749534263;Centre de découverte de la nature et du patrimoine cynégétique;;Avenue de l'Oratoire;84390;Sault;France;fr;44.0927701;5.4103027;;;;;osm:museum;Le centre de découverte de la nature sur Sault propose près de 600 m2 d’expositions consacrées à la nature, aux  produits du terroir et aux activités traditionnelles en Provence.;44135,779537037;
78184011;Centre de découverte du Moyen-âge;;Avenue d'Orluc;19300;Égletons;France;fr;45.40874685;2.04454751000406;;;;;"osm:museum;art:art medieval;type:centre d'interpretation";;43931,0675694444;
109155437;Centre de la mémoire d'Oradour-sur-Glane;;D 3;87520;Oradour-sur-Glane;France;fr;45.92908385;1.0354407608763472;;;;;"osm:museum;type:musee d'histoire";;43601,6927546296;
1948372274;Centre de la Nature Montagnarde;;Montée des Rubins;74700;Sallanches;France;fr;45.9355769;6.6247377;http://www.centrenaturemontagnarde.org/;;33450583213;;osm:museum;;41196,9599884259;
64717877;Centre de ressources du Munaé;6;Rue de Bihorel;76000;Rouen;France;fr;49.44841715;1.102956596817131;https://www.reseau-canope.fr;;33232087100;;osm:museum;;44106,8224074074;
41276415;Centre de Sculpture Romane;;Avenue de la Tramontane;66330;Cabestany;France;fr;42.679639449999996;2.937270042806929;http://www.maitre-de-cabestany.com/;contact@maitredecabestany.fr;33468081531;;"osm:museum;art:antiquite";;44232,6865856481;
190208228;Centre Denis Papin;;Rue du Général Delestraint;62590;Oignies;France;fr;50.4732705;2.997918924196004;;;;;osm:museum;;43707,7459143518;
2630158532;Centre départemental d'exposition archéologique;;Boulevard Charles de Gaulle;91450;Étiolles;France;fr;48.6347189;2.4665016;;;;;"osm:museum;art:prehistoire;type:musee archeologique";;41700,7335185185;
3502559701;Centre des Monuments Nationaux;;Chemin des Écoliers;5600;Mont-Dauphin;France;fr;44.670441;6.6247037;;;;;osm:museum;;42131,4471643519;
128106367;Centre des visiteurs;;Route du Capitaine Joe Dawson;14710;Colleville-sur-Mer;France;fr;49.3588359;-0.8514162469799437;;;;;osm:museum;;43345,7650578704;
495023415;Centre des visiteurs du Mémorial canadien de Vimy;;Chemin des Tranchées du Mémorial de Vimy;62580;Neuville-Saint-Vaast;France;fr;50.37184935;2.770032777652018;;;;;osm:museum;;44202,4006828704;
85627561;Centre d'évocation de l'histoire vaudoise;2;Chemin de la Muse;84360;Mérindol;France;fr;43.75634095;5.2011796;;;;;"osm:museum;type:centre d'interpretation";;44135,5350231481;
79561880;Centre d'évoquation du village Ateka;893;Karrika nagusia;64250;Itxassou;France;fr;43.332547899999994;-1.4118635180052566;https://www.espelette.fr/A-VOIR-A-FAIRE2/Visites-culturelles/centre-evocation-du-village-ateka/1593;;33559297536;;"osm:museum;type:centre d'interpretation";Ce centre d'évocation permet de présenter le village et ses différents aspets, à la fois culturel, historique et économique. La cerise noire a en effet permis d'en faire la renommée. Accueil toute l'année, présentation des informations sous forme d'écrans;44043,6475462963;
700244374;Centre d'histoire de la résistance et de la déportation;;Rue Étienne Rognon;69007;Lyon;France;fr;45.74638505;4.836120856089015;http://www.chrd.lyon.fr;;33478722311;;"osm:museum;type:musee d'histoire";;44232,5278009259;
522243661;Centre d'histoire et d'étude des troupes d'outre-mer;;Avenue Musée Troupes de la Marine;83600;Fréjus;France;fr;43.471486850000005;6.720956807836393;;;;;"osm:museum;type:musee d'histoire";;43031,6856134259;
188566238;Centre d'Interprétation Archéologique;;Rue de la Corniche;29780;Plouhinec;France;fr;47.987230499999995;-4.474102510287082;;;;;"osm:museum;art:prehistoire;type:musee archeologique";;41214,4364814815;
177669795;Centre d'Interprétation Art et Culture;;Rue de Dunkerque;59630;Bourbourg;France;fr;50.947250499999996;2.1970460156249962;http://www.ciacbourbourg.fr/;;;;"osm:museum;type:centre d'interpretation";;43411,9566203704;
1764443703;Centre d'Interpretation de la ligne de démarcation;;D 974;71420;Génelard;France;fr;46.5778161;4.2353299;;;33385792312;;"osm:museum;type:centre d'interpretation";;43556,6819791667;
79550955;Centre d'interprétation de l'AOP Ossau Iraty;390;Karrika Nagusia;64250;Espelette;France;fr;43.3408034;-1.4489028678753457;https://www.ossau-iraty.fr/;al@ossau-iraty.fr;;;"osm:museum;type:centre d'interpretation";La Maison propose une visite autour du voyage entre Pays Basque et Béarn à la découverte de ce célèbre fromage. Possibilité de rencontre avec des éleveurs et de dégustation.;44043,6365856481;
3068419046;Centre d'interprétation de l'architecture et du patrimoine;;Place de la Bourse;33000;Bordeaux;France;fr;44.8410503;-0.5704632;;;;;"osm:museum;type:centre d'interpretation";;41891,6957638889;
6572457842;Centre d'interprétation de l'architecture et du patrimoine;;Allée de Yorktown;41100;Vendôme;France;fr;47.7907442;1.0689753;;;;;"osm:museum;type:centre d'interpretation";;43904,0629282407;
5825871638;Centre d'Interprétation des stèles du Pays Basque;;D 918;64120;Larceveau;France;fr;43.2318439;-1.0942046;https://steles-paysbasque.jimdo.com/;comlarceveau@cdg-64.fr;;;"osm:museum;type:centre d'interpretation";Le centre présente une collection à ciel ouvert de différentes stèles provenant de l'ensemble du territoire Basque. Il invite le visiteur à la découverte de nouvelles visions et cultures.;;
6512733660;Centre d'interprétation des usages de l'eau de la vallée du Cotatay;;Vallon de Cotatay;42500;Le Chambon-Feugerolles;France;fr;45.3901503;4.3589531;;;;;"osm:museum;type:centre d'interpretation";Centre d'interprétation des usages de l'eau de la vallée du Cotatay;43808,5767361111;
98198498;Centre d'Interprétation du Patrimoine Coriosolis;;Rue César Mulon;22130;Corseul;France;fr;48.4826115;-2.1691249895833336;http://coriosolis.com/;;;;"osm:museum;type:centre d'interpretation";;42862,8043055556;
8293087608;Centre d'interprétation du piment d'Espelette;25;Merkatu plaza;64250;Espelette;France;fr;43.3400888;-1.446846;http://www.pimentdespelette.com/;;33559938886;;"osm:museum;type:centre d'interpretation";;44207,9413773148;
1376646039;Centre d'Interprétation Marne 14-18;;Rue Bayard;51600;Suippes;France;fr;49.1318982;4.5317883;http://www.marne14-18.fr;;;;"osm:museum;type:centre d'interpretation";;43242,753125;
141501253;Centre Eden;;Rue de l'Église;71290;Cuisery;France;fr;46.5603554;5.001714405555555;;;;;osm:museum;;43740,6583912037;
188829574;Centre Européen de la Préhistoire;;Avenue Louis Baixas;66720;Tautavel;France;fr;42.815132000000006;2.7501767068631207;https://www.450000ans.com;;33468290776;;"osm:museum;art:prehistoire;musee archeologique";;43947,7621643519;Q3329755
59141854;Centre Européen du Résistant Déporté;;Avenue du Général Frère;67130;Natzwiller;France;fr;48.45398595;7.251175646204755;http://www.struthof.fr/fr/le-centre-europeen;;;;"osm:museum;type:musee d'histoire";;43810,8963425926;Q1378218
3836386657;Centre Guillaume-le-Conquérant;;Rue de Nesmond;14400;Bayeux;France;fr;49.2743575;-0.6999609;;;33231512558;;"osm:museum;type:musee d'histoire";;44047,5104050926;Q187483
161424898;Centre Historique Du Monde Sapeur-Pompier;;Rue du Pré de la Pie;63300;Thiers;France;fr;45.8520065;3.5078079565217397;;;;;"osm:museum;type:musee d'histoire";;44073,7340277778;
5604180067;Centre Historique Médiéval;24;Rue Charles VI;62310;Azincourt;France;fr;50.4634332;2.127496;https://azincourt1415.com;;33321472753;;"osm:museum;type:musee d'histoire";;44153,4760648148;
314567878;Centre Historique Minier de Lawarde;;D 132;59287;Lewarde;France;fr;50.33184445;3.172357794296709;http://www.chm-lewarde.com;;33327958282;;"osm:museum;type:musee d'histoire";;43772,7464236111;Q2945654
6932895086;Centre Historique Valmy 1792;24;D 284;51800;Valmy;France;fr;49.0808277;4.766853;https://valmy1792.com;;33326603657;;"osm:museum;type:musee d'histoire";;44008,9541087963;
141550678;Centre international d'art contemporain;;Camin de l'Uba;6510;Carros;France;fr;43.792557;7.187009731322958;http://www.ciac-carros.fr/;ciac@ville-carros.fr;33493293797;;"osm:museum;art:art contemporain";;44206,8395833333;Q65153095
176786572;Centre International d'Art et du Paysage;;D 3a2;23460;Royère-de-Vassivière;France;fr;45.80201705;1.8658367309907107;;;;;osm:museum;;41140,6369328703;
570334950;Centre international du vitrail;;Cour Firmin Didot;28000;Chartres;France;fr;48.4484007;1.4862275;;;;;"osm:museum;type:musee technique et industriel";;41139,6036574074;
79979931;Centre Jean-Moulin;;Place Jean Moulin;33000;Bordeaux;France;fr;44.83869155;-0.5776727923278906;http://www.bordeaux.fr/p63906/centre-jean-moulin;cnjm@mairie-bordeaux.fr;33556015100;;"osm:museum;type:musee d'histoire;gender:musee d'homme";Fermé jusqu'en 2022.;;
620726971;Centre Minier de Faymoreau;;Rue de la Cour;85240;Faymoreau;France;fr;46.55511285;-0.6311954483215672;https://centreminier-vendee.fr/;;33251004848;;"osm:museum;type:musee technique et industriel";;44036,8834953704;Q20669745
3726062762;Centre Mondial de la Paix;;Rue de Rû;55100;Verdun;France;fr;49.1588711;5.3807765;;;;;osm:museum;;43003,1048726852;Q2945862
45252091;Centre National des Costumes de Scène;;Rue de la Madeleine;3000;Moulins;France;fr;46.56117985;3.3187809356823923;https://www.cncs.fr/;;33470207620;;"osm:museum;type:musee d'arts populaires";;44035,9038657407;Q526929
83184155;Centre National et Musée Jean Jaurès;2;Place Pélisson;81100;Castres;France;fr;43.607194;2.240496445775623;http://www.ville-castres.fr/fr/centre-national-et-musee-jean-jaures-presentation;;33563624183;;"osm:museum;type:musee d'histoire";;44162,7305671296;Q18610934
504908414;Centre Pompidou-Metz;;Parvis des Droits de l'Homme;;Metz;France;fr;49.1082004;6.181582790849188;https://www.centrepompidou-metz.fr/;;;;"osm:museum;art:art contemporain;type:musee de beaux-arts";;43551,5817824074;Q1054169
176431458;Centre régional d'art contemporain;;D 1;89520;Fontenoy;France;fr;47.649104;3.295187274219902;;;;;"osm:museum;art:art contemporain;type:centre d'art";;41211,68625;
64207919;Centre Régional Résistance et Liberté;;Rond-Point du 19 Mars 1962;79100;Thouars;France;fr;46.97264185;-0.21783666046511624;;;;;"osm:museum;type:musee d'histoire";;44135,9847569444;
218717356;Centre Saint-Exupéry;;Rue de la Huitième Armée;14114;Ver-sur-Mer;France;fr;49.336778800000005;-0.5252773724258311;;;;;"osm:museum;gender:musee d'homme;type:musee litteraire";;41388,62;
581046894;Centre Sir John Monash;;Accès PMR Centre Sir John Monash;80800;Fouilloy;France;fr;49.88704225;2.5132401499999997;https://sjmc.gov.au/;;;;"osm:museum;gender:musee d'homme";;44215,8243518519;Q48796613
81767364;Centre Tignous d'art contemporain;;Rue de Paris;93100;Bobigny;France;fr;48.85672485;2.427025211638159;https://centretignousdartcontemporain.fr/;;;;"osm:museum;art:art contemporain;gender:musee d'homme";;43989,7745486111;
113878842;Cercil;45;Rue du Bourdon Blanc;45000;Orléans;France;fr;47.902559;1.912766970534976;;;;;osm:museum;;43761,5359606482;
7041967412;Cerisy Parc De Sculptures;;L'Étang;50680;Cerisy-la-Forêt;France;fr;49.1983729;-0.9322253;;;;;osm:museum;;43807,730162037;
227138585;Chalet de la Réserve Naturelle des Aiguilles Rouges;;Route des Montets;74660;Vallorcine;France;fr;46.0039042;6.923141955996238;;;;;"osm:museum;type:centre d'interpretation";;44054,7160763889;
218705566;Chalet du Coin d'Aval;;D 62;39150;Fort-du-Plasne;France;fr;46.6143;5.974197306233062;https://www.haut-jura-grandvaux.com/fr/visiter/musees/F339000073_ancienne-fruitiere-le-chalet-du-coin-d-aval-fort-du-plasne.html;;;;"osm:museum;type:centre d'interpretation";;44073,5374768519;Q22996725
1569765257;Chalet Exposition Arboretum;;Route des Petits Murcins;42370;Arcon;France;fr;46.0260168;3.8931409;;;;;"osm:museum;type:centre d'interpretation";;42156,545787037;
5613617738;Chalutier Louis Nocca;;Quai du Général Durand;34200;Sète;France;fr;43.400448;3.6968665;;;;;"osm:museum;type:centre d'interpretation";;43232,668587963;
1359954338;Chambre de Van Gogh;;Rue de la Sansonne;95430;Auvers-sur-Oise;France;fr;49.0709727;2.1715784;;;;;"osm:museum;gender:musee d'homme;type:musee d'histoire";;40737,0365277778;
8301373520;Chantier de Construction Navale Traditionelle;;Boulevard Bigot Descelers;62630;Étaples;France;fr;50.5179366;1.6302368;http://www.chantier-naval.etaples-sur-mer.fr/;chantiernaval@etaples-sur-mer.net;33321942327;;"osm:museum;type:musee technique et industriel";;44204,0152893519;
7850880041;Chapelle Bellini;5;Allée du Parc Fiorentina;6407;Cannes;France;fr;43.5603843;7.0323865;;lucette.bellini@sfr.fr;33493386180;;"osm:museum;art:architecture";;44071,4088773148;
153898006;Chapelle de la Madelaine;;Impasse de la Chapelle;50000;Saint-Lô;France;fr;49.117267;-1.061092009852217;;;;;"osm:museum;art:architecture";;41966,6622916667;
87940994;Chapelle de la Miséricorde;;Place Jules Lisnard;6220;Vallauris;France;fr;43.578563;7.050885198412701;;;;;"osm:museum;art:architecture";;40779,9763425926;
1455828346;Chapelle de la Vraie Croix;;Rue de la Girouardière;;Baugé;France;fr;47.541107;-0.1046174;;;;;"osm:museum;art:architecture";;44070,5485069444;
80688040;Chapelle des Jésuites;;Rue du Collège de l'Arc;39100;Dole;France;fr;47.0927764;5.491094045966902;;;;;"osm:museum;art:architecture";;42833,9187962963;Q2983792
4648474973;Chapelle des Visitandines;;Rue de Paris;89000;Auxerre;France;fr;47.7988054;3.5690036;;;;;"osm:museum;art:architecture";;42766,6608333333;
3594224938;Chapelle du Carmel;;Rue Pline Parmentier;33500;Libourne;France;fr;44.9170347;-0.2397985;;;;;"osm:museum;art:architecture";;42169,5475694444;
7202744564;Chapelle du château;;Rue du Château;23500;Felletin;France;fr;45.8845631;2.1725233;;;;;"osm:museum;art:architecture";;43872,3604050925;
129666878;Chapelle du Rosaire;;Avenue Henri Matisse;6140;Vence;France;fr;43.727509999999995;7.1128642226027425;;;;;"osm:museum;art:architecture";;42884,9367824074;Q1062726
169086558;Chapelle du Saint-Esprit;;Rue de la Paroisse;6560;Valbonne;France;fr;43.64055825;7.008963274021526;;;;;"osm:museum;art:architecture";;41210,3476273148;
629231503;Chapelle Foujita;33;Rue du Champ-de-Mars;51100;Reims;France;fr;49.26413325;4.03820245;https://musees-reims.fr/fr/musees/la-chapelle-foujita/;;;;"osm:museum;art:architecture;gender:musee d'homme";;43544,9276388889;
64217658;Chapelle Jeanne d'Arc;;Passage Jeanne d'Arc;79100;Thouars;France;fr;46.97704885;-0.21483834885693714;;;;;"osm:museum;art:architecture;gender:musee de femme";;40467,6033912037;
5825898217;Chapelle Mémorial de l'Aviation;;D 289;64230;Lescar;France;fr;43.3551685;-0.4201143;http://www.aviation-memorial.com;;;;"osm:museum;art:architecture";;43323,9843171296;
223426847;Chapelle Sainte-Thérèse;;Impasse de la Chapelle;51340;Pargny-sur-Saulx;France;fr;48.7710409;4.85431650479318;;;;;"osm:museum;art:architecture";;43959,7565856481;
123357401;Chapelle Saint-Gilles;;Passage Glemet;17800;Pons;France;fr;45.578697500000004;-0.5458723388856148;;;;;"osm:museum;art:architecture";;42884,6296064815;Q22955076
161346548;Chapelle Saint-Jacques du Cimetière;;Boulevard Victor Duhamel;78200;Mantes-la-Jolie;France;fr;48.98521075;1.7165734850371157;;;;;"osm:museum;art:architecture";;43030,3940162037;
135876826;Chapelle Saint-Louis;7;Rue Francois de Guise;55000;Bar-le-Duc;France;fr;48.771656899999996;5.157418068116037;;;;;"osm:museum;art:architecture";;43748,5415856481;
1070740454;Chartreuse Notre-Dame-du-Val-de-Bénédiction;58;Rue de la République;30404;Villeneuve-lès-Avignon;France;fr;43.9665144;4.7975804;;accueil@chartreuse.org;33490152424;;"osm:museum;art:architecture";;44094,8396527778;Q2961249
1684479871;Château;;D 241;46400;Saint-Jean-Lespinasse;France;fr;44.8604339;1.8684273;;;;;"osm:museum;art:architecture";;44028,7119212963;
192623749;Château d'Arsac;;Allée du Château;33460;Arsac;France;fr;44.99015300000001;-0.701919558505901;;;;;"osm:museum;art:architecture";;42169,5645949074;
70789657;Château d'Asnières;89;Rue du Château;92600;Asnières-sur-Seine;France;fr;48.910521349999996;2.2935362849192593;http://www.asnieres-sur-seine.fr/Tourisme-international/Patrimoine/Le-chateau;;33171078225;;"osm:museum;art:architecture";;43053,9569212963;Q2968138
619219383;Château de Bernicourt;;Résidence du Château;59286;Roost-Warendin;France;fr;50.4228823;3.1035733;;;;;"osm:museum;art:architecture";;41743,5791319444;
70279441;Château de Bucheneck;;Place du Bucheneck;68360;Soultz-Haut-Rhin;France;fr;47.8869036;7.227344429850218;;;;;"osm:museum;art:architecture";;44037,9301273148;Q5118748
80559366;Château de By;12;Rue Rosa Bonheur;77810;Thomery;France;fr;48.3961013;2.7832384066656948;https://www.chateau-rosa-bonheur.fr/;;;;"osm:museum;art:architecture";;44204,5152314815;Q62018828
4478123325;Château de Châteaubriant;;Rue du Duc d'Aumale;44110;Châteaubriant;France;fr;47.7196407;-1.3719939;https://www.grand-patrimoine.loire-atlantique.fr/jcms/les-sites-a-visiter/chateau-de-chateaubriant-fr-eja_77026;;33240282020;;"osm:museum;art:architecture";;43528,9407060185;
396793983;Château de Désaignes;;Rue des Remparts;7570;Désaignes;France;fr;44.9944332;4.5168644619482485;https://chateaudesaignes.org/;;;;"osm:museum;art:architecture";;44207,9547685185;Q2969174
95903744;Château de Dinan;;Promenade des Petits Fossés;22100;Dinan;France;fr;48.450287599999996;-2.0449255728476867;;;;;"osm:museum;art:architecture";;43888,7841435185;Q312445
303480678;Château de Fitou;;Rue du Château;11510;Fitou;France;fr;42.89359745;2.9772088048779466;;;;;"osm:museum;art:architecture";;43048,9634722222;Q2969221
3241536133;Château de Foix;;Rue du Rocher;9000;Foix;France;fr;42.9657002;1.6047597;https://musees-occitanie.fr/musees/chateau-des-comtes-de-foix;;33561051010;;"osm:museum;art:architecture";;44026,8061689815;Q1011806
369893639;Château de Gramont;;D 25;82120;Gramont;France;fr;43.937108;0.7675990365853658;;;;;"osm:museum;art:architecture";;42536,7432291667;
125735941;Château de Joux;;Deuxième Enceinte;25300;La Cluse-et-Mijoux;France;fr;46.87211625;6.373965210354086;http://chateaudejoux.com/;contact@chateaudejoux.com;33381694795;;"osm:museum;art:architecture";;44192,5320138889;Q1090706
2330409966;Château de la Bâtie d'Urfé;;Route de la Batie D'urfe;42130;Saint-Étienne-le-Molard;France;fr;45.7276579;4.0785849;http://www.loire.fr/jcms/c_743949/la-batie-d-urfe;;33477975468;;"osm:museum;art:architecture";;43940,5848958333;Q2450180
80773694;Château de la Terrasse;;Rue Auguste Rey;95390;Saint-Prix;France;fr;49.01400825;2.272473966513454;;;;;"osm:museum;art:architecture";;40460,4066782407;
2018713809;Château de la Verrerie - Musée de l'Homme et de l'Industrie;;Rue Jules Guesde;71200;Le Creusot;France;fr;46.8055361;4.424299;http://ecomusee-creusot-montceau.fr/sommaire.php3;;33385739200;;"osm:museum;art:architecture;type:musee technique et industriel";;43940,5848958333;
420294471;Château de Lacaze;;Passage de l'Orangeraie;81330;Lacaze;France;fr;43.737327;2.520303550524865;https://www.amisduchateau-lacaze81.org/;;;;"osm:museum;art:architecture";;44066,9810416667;Q18215061
145189098;Château de l'Hermine;;Rue Alexandre Le Pontois;56000;Vannes;France;fr;47.65519035;-2.756676990188061;https://www.mairie-vannes.fr/vannesloisirs/musees/musee-dhistoire-et-darcheologie/;;33297016300;;"osm:museum;art:architecture";;44056,8404513889;Q2971101
2433718893;Château de Malbrouck;;Route de Merschweiller;57480;Thionville;France;fr;49.45716;6.4327433;http://www.chateau-malbrouck.com;;;;"osm:museum;art:architecture";;43792,5502662037;
68566900;Château De Monbazillac;;D 13;;Monbazillac;France;fr;44.796649349999996;0.4941958519794482;;;;;"osm:museum;art:architecture";;42886,8612384259;Q773649
128925665;Château de Monte-Cristo;;Avenue du Président J.-F. Kennedy;78560;Le Port-Marly;France;fr;48.885601;2.1034686766233763;http://www.chateau-monte-cristo.com;contact@chateau-monte-cristo.com;33139164949;;"osm:museum;art:architecture";;43699,4446296296;Q1190649
31101634;Château de Quintin;;Impasse de la Pompe;22800;Quintin;France;fr;48.40301485;-2.90874074864559;;;;;"osm:museum;art:architecture";;43078,9607986111;
146142380;Château de Rambouillet;;Allée des Soupirs;78120;Rambouillet;France;fr;48.6454066;1.8173210591527647;http://chateau-rambouillet.monuments-nationaux.fr/;;;;"osm:museum;art:architecture";;43699,4259953703;Q648534
120856493;Château de Réghat, Musée de Maisons-Alfort;34;Rue Victor Hugo;94700;Maisons-Alfort;France;fr;48.80042975;2.4356670862206373;;;;;"osm:museum;art:architecture";;44135,5920949074;Q2970468
3594399915;Château de Roquetaillade;;D 223;33210;Mazères;France;fr;44.4926267;-0.2698336;;;;;"osm:museum;art:architecture";;43013,8080902778;
80773777;Château de Rubelles;;Rue de Rubelles;95390;Saint-Prix;France;fr;49.01175795;2.264040737016648;;;;;"osm:museum;art:architecture";;40459,9779398148;
68962958;Château de Saché, Musée Balzac;;Rue du Château;37190;Saché;France;fr;47.245798699999995;0.5446441687934453;http://www.musee-balzac.fr;museebalzac@cg37.fr;33247268650;;"osm:museum;art:architecture";;44031,7281944444;Q2054341
73850178;Château de Saint-Amand-en-Puisaye;;Grande Rue;58310;Saint-Amand-en-Puisaye;France;fr;47.53178405;3.0739862373751983;;;;;"osm:museum;art:architecture";;42994,8044212963;Q22965347
116073486;Château de Savigny lès Beaune;;Rue Général Leclerc;21420;Savigny-lès-Beaune;France;fr;47.06169495;4.818804982130279;;;;;"osm:museum;art:architecture";Château et petit château;43199,4505439815;Q1888542
391143508;Château de Sedières;;Chemin d'Artiges;19320;Clergoux;France;fr;45.291728000000006;1.949568145348838;https://www.correze.fr/nos-missions/culture-patrimoine-sports/le-chateau-de-sedieres/;;;;"osm:museum;art:architecture";;44029,4253356481;Q2970734
528996147;Château de Suscinio;;Route du Duc Jean V;56370;Sarzeau;France;fr;47.5129311;-2.7294371823705177;https://www.suscinio.fr/;;;;"osm:museum;art:architecture";;44043,8867708333;Q2970742
188151245;Château de Termes;2;Camin dal Castel;11330;Termes;France;fr;43.000259549999996;2.561363092667852;https://chateau-termes.com;chateau.termes@gmail.com;33468700920;;"osm:museum;art:architecture";"L'accueil du château de Termes propose : - la vision d'un film explicatif (12 min- payant) - l'exposition permanante ""1210, le siège du château de Termes"" (payant). - quelques vitrines patrimoniales.";44013,613912037;Q3486031
129454734;Château de Thierry;;Rue de Marnes;92410;Ville-d'Avray;France;fr;48.82757035;2.18642875;;;;;"osm:museum;art:architecture";;43961,673912037;Q2970778
4265122872;Château de Versailles;;Galerie des Glaces;78000;Versailles;France;fr;48.8047835;2.120417;;;;;"osm:museum;art:architecture";;44071,017962963;
129667034;Château de Villeneuve;;Rue du Docteur Binet;6140;Vence;France;fr;43.722912;7.112621344827586;http://www.museedevence.com/;;;;"osm:museum;art:architecture";;41511,5187037037;
61565556;Château d'eau Charles Laganne;;Esplanade Jean Dieuzaide;31300;Toulouse;France;fr;43.59869335;1.4369307601019385;;;;;"osm:museum;art:architecture";;44027,9805439815;Q2968376
6468984786;Château d'Égreville massenet;;Rue du Château;77620;Égreville;France;fr;48.174919;2.869016;;;;;"osm:museum;art:architecture";;43598,1949652778;
113069661;Château des Bouillants;;Avenue Henri Barbusse;77190;Dammarie-les-Lys;France;fr;48.511276499999994;2.6324395713438724;;;;;"osm:museum;art:architecture";;41453,0454976852;
128925438;Château d'If;;Chemin des Monferrands;78560;Le Port-Marly;France;fr;48.8852945;2.1029559945652165;;;;;"osm:museum;art:architecture";;41212,426724537;
102960021;Château d'Oiron;;Place Gouffier;79100;Bressuire;France;fr;46.952003000000005;-0.07697179992421763;;;;;"osm:museum;art:architecture";;43219,5101967593;Q905650
62782286;Château du Clos-Lucé;2;Rue du Clos Lucé;37400;Amboise;France;fr;47.41032365;0.9921089543099333;http://www.vinci-closluce.com;;;;"osm:museum;art:architecture";;43928,9143981481;Q1122731
7944701712;Château du Patys - Maison d'Hervé Bazin;;D 961;49500;Segré-en-Anjou Bleu;France;fr;47.6350516;-0.8478617;https://www.chateaudupatys.com/;;;;"osm:museum;art:architecture";;44100,6163888889;
251862484;Château du Sailhant;;Rue des Rochers;15100;Andelat;France;fr;45.06885435;3.0418079107619094;http://www.sailhant.com;;;;"osm:museum;art:architecture";;44229,0228472222;Q15943705
63886282;Château Grimaldi;;Place du Docteur Maurel;6800;Cagnes-sur-Mer;France;fr;43.66704665;7.145484387423483;http://www.cagnes-sur-mer.fr/culture/chateau-musee-grimaldi/;;33492024735;;"osm:museum;art:architecture";;43947,7571412037;Q2241293
63820570;Château Lafont;18;Allées d'Étigny;31110;Bagnères-de-Luchon;France;fr;42.78929085;0.5917478120211621;;;;;"osm:museum;art:architecture";;43812,7544444444;Q22937962
6528325404;Château Musée des Comtes du Perche;;Rue des Marches du Saint-Jean;28400;Nogent-le-Rotrou;France;fr;48.3143308;0.820474;http://www.ville-nogent-le-rotrou.fr/chateau-des-comtes-du-perche;musee@chateau-nogentlerotrou.fr;33237521802;;"osm:museum;art:architecture";;43622,6040509259;
3594413678;Château Pichon Longueville Comtesse de Lalande;;Route des Châteaux;33250;Daubos;France;fr;45.1763528;-0.7500863;;;;;"osm:museum;art:architecture";;42267,5605902778;
41159704;Château Vodou;;Rue de Koenigshoffen;67083;Strasbourg;France;fr;48.5804117;7.728683276749141;;;;;"osm:museum;art:architecture";;43395,766724537;Q15940095
2383345899;Château-Abbaye de Cassan;;D 13;34320;Roujan;France;fr;43.509157;3.2881664;;;;;"osm:museum;art:architecture";;44166,475;
145189774;Château-Gaillard;2;Rue Noé;56000;Vannes;France;fr;47.6568685;-2.7579838224637703;https://www.mairie-vannes.fr/vannesloisirs/musees/musee-dhistoire-et-darcheologie/;;33297016300;;"osm:museum;art:architecture";;44055,4054398148;Q2967791
128860574;Château-Mairie;;Impasse du Château;6140;Tourrettes-sur-Loup;France;fr;43.7158465;7.058856073899371;;;;;"osm:museum;art:architecture";;41498,0462152778;
387891590;Château-Musée de Dieppe;;Rue de Sygogne;76200;Dieppe;France;fr;49.924208899999996;1.0707435133141803;https://www.dieppe.fr/mini-sites/musee-de-dieppe/;;33235066199;;"osm:museum;art:architecture";;44197,0560185185;
2650356282;Château-Musée de Dourdan;;Rue du Marché aux Grains;91410;Dourdan;France;fr;48.5298686;2.0111955;;;;;"osm:museum;art:architecture";;41958,8460648148;
2177750355;Château-Musée de Nemours;;Cours du Château;77140;Nemours;France;fr;48.2655865;2.6970907;http://www.nemours.fr/culture-et-sport/le-chateau-musee;;33164282742;;"osm:museum;art:architecture";;43940,5848958333;Q2970121
5624961822;Château-Musée de Noirmoutier;;Place d'Armes;85330;Noirmoutier-en-l'Île;France;fr;47.0004648;-2.2421269;https://www.ville-noirmoutier.fr/le-chateau;;33251391042;;"osm:museum;art:architecture";;44104,6905439815;
105030810;Château-Musée de Tournon;;Terrasse Sud;7300;Tournon-sur-Rhône;France;fr;45.06835915;4.8316318145127095;http://www.chateaumusee-tournon.com/;;33475081030;;"osm:museum;art:architecture";;43954,8327199074;Q2243758
1268201093;Château-Musée d'Histoire naturelle;;Montée du Château;6690;Tourrette-Levens;France;fr;43.7836001;7.2764439;;;;;"osm:museum;type:musee d'histoire naturelle";;42859,5070949074;
3029122657;Chocolaterie Michel Cluizel;;Avenue de Conches;27240;Bernay;France;fr;48.8769432;1.0617739;http://www.cluizel.com/;damville@cluizel.com;33232352075;;"osm:museum;type:musee technique et industriel";;42926,3421875;
74717656;Chocolaterie Musée;;Musdehalsuren Borda;64250;Cambo-les-Bains;France;fr;43.3530238;-1.3976199023687885;;;;;"osm:museum;type:musee technique et industriel";;42856,7916782407;
1209893702;Choco-Story - Le musée gourmand du chocolat;;Boulevard de Bonne Nouvelle;;Paris;France;fr;48.8705899;2.3500828;www.museeduchocolat.fr;info@museeduchocolat.fr;33142296860;;"osm:museum;type:musee technique et industriel";;44195,5170717593;Q3330333
6572478906;CIAP Les enclos;;Rue du Calvaire;29400;Guimiliau;France;fr;48.4884308;-3.9969034;;;;;"osm:museum;type:centre d'interpretation";Centre d’Interprétation de l’Architecture et du Patrimoine;43696,5250810185;
6572515165;CIAP Maison Pénanault;;Place Charles de Gaulle;29600;Morlaix;France;fr;48.5810597;-3.830644;;;;;"osm:museum;type:centre d'interpretation";;43642,6324074074;
2389843620;Citadelle de Saint-Tropez;;Montée de la Citadelle;83990;Saint-Tropez;France;fr;43.272407;6.6442595;;;;;"osm:museum;art:architecture";;43698,3588078704;
3726345690;Citadelle Souterraine;;Avenue du Soldat Inconnu;55100;Verdun;France;fr;49.1582201;5.3762677;;;;;"osm:museum;art:architecture";;43003,1048726852;Q2974403
449007880;Cité de l’Automobile;;Autodrome du Musée de l'Automobile;68100;Mulhouse;France;fr;47.7612848;7.327971551196445;;;;;"osm:museum;type:musee technique et industriel;gender:musee d'homme";;43939,586712963;Q867719
69947745;Cité de la Voile Éric Tabarly;;Rue Henri Honoré d'Estienne d'Orves;;Lorient;France;fr;47.73085705;-3.3740709614540725;https://www.citevoile-tabarly.com/;accueil@citevoile-tabarly.com;33297655656;;"osm:museum;type:musee technique et industriel;gender:musee d'homme";;43546,4553703704;Q2974767
1296750671;Cité de l'architecture et du patrimoine;;Parvis des Libertés et des Droits de l'Homme;75016;Paris;France;fr;48.8629386;2.2890051;http://www.citechaillot.fr/fr/;;33158515200;;"osm:museum;art:architecture;type:musee de beaux-arts";;43889,5129976852;Q537515
554218628;Cité de l'écrit;;Rue Montebello;86500;Montmorillon;France;fr;46.4258284;0.865557;;;;;"osm:museum;type:musee litteraire";;40121,5365625;
58742086;Cité Découverte Nature;;Place de la Mairie;24450;Mialet;France;fr;45.5500821;0.9049788184497465;;;;;osm:museum;;40970,634224537;
167057713;Cité des arts et de la culture;;Avenue Arthur Gaulard;25000;Besançon;France;fr;47.236006450000005;6.033777701095765;;;;;osm:museum;;43701,7797800926;
5310803541;Cité des Bateliers;;Rue de la Corderie;60150;Longueil-Annel;France;fr;49.4611415;2.8609057;http://www.citedesbateliers.com;;;;"osm:museum;type:musee technique et industriel";;43810,4870023148;Q2974778
6632844474;Cité des Couteliers;1;Rue Conchette;63300;Thiers;France;fr;45.8552311;3.5477559;http://www.thiers.fr/Cite-des-Couteliers-1085;;;;osm:museum;;43666,4358796296;
3882655722;Cité des Enfants (2-7 ans);;La Terrasse du Parc;75019;Paris;France;fr;48.8961521;2.3880996;http://www.cite-sciences.fr/fr/au-programme/expos-permanentes/la-cite-des-enfants/lexposition-2-7-ans/;;;;osm:museum;;42346,0123958333;
410272989;Cité des Enfants (5-12 ans);;Allée du Cercle;75019;Paris;France;fr;48.8957352;2.3886935;http://www.cite-sciences.fr/fr/au-programme/expos-permanentes/la-cite-des-enfants/cite-des-enfants-5-12-ans/;;;;osm:museum;;42346,0124074074;
3682642010;Cité des insectes;;D 81a;87120;Nedde;France;fr;45.7007208;1.8169485;;;;;osm:museum;;42221,7285648148;
6710304196;Cité des Paysages;;Rue Notre-Dame;54330;Saxon-Sion;France;fr;48.431377;6.0844683;http://www.citedespaysages.meurthe-et-moselle.fr/;;;;osm:museum;;43691,7073032407;
253065826;Cité des Sciences et de l'Industrie;30;Avenue Corentin Cariou;75019;Paris;France;fr;48.8957518;2.3879761;http://www.cite-sciences.fr/;;33140057000;;"osm:museum;type:musee de sciences";;42688,9393865741;Q1094338
126131523;Cité des télécoms;;Liaison EV4 - Parc du Radôme;22560;Pleumeur-Bodou;France;fr;48.786527500000005;-3.524770051150124;https://www.cite-telecoms.com/;;;;"osm:museum;type:musee de sciences";;43559,4116319444;Q2974792
4551159534;Cité du train;;Rue Alfred de Glehn;68200;Mulhouse;France;fr;47.7500026;7.2938678;;;;;"osm:museum;type:musee technique et industriel";;43939,7069328704;Q728562
421965158;Cité du Vin;1;Esplanade de Pontac;33000;Bordeaux;France;fr;44.86237155;-0.5500190670185183;https://www.laciteduvin.com/fr;;33556162020;;"osm:museum;type:musee technique et industriel";;43546,4349421296;Q16964634
133788030;Cité du Vitrail;;Quai du Comte Henri;10000;Troyes;France;fr;48.298578;4.07871056063869;;;;;"osm:museum;type:musee technique et industriel";;43959,6995833333;Q78187757
1390705450;Cité Internationale de la Dentelle et de la Mode;;Quai du Commerce;62100;Calais;France;fr;50.9502199;1.85981;https://www.cite-dentelle.fr/fr/;;33321004230;;"osm:museum;type:musee technique et industriel";;44031,7483796296;
6943618299;Cité Internationale de la Gastronomie de Lyon;;Cour du Cloître;69002;Lyon;France;fr;45.7596898;4.8362144;https://citegastronomielyon.fr/;;;;"osm:museum;type:musee technique et industriel";;43773,9049421296;
225390327;Cité Internationale de la Tapisserie;;Rue des Arts;23200;Aubusson;France;fr;45.954104;2.166424465217391;https://www.cite-tapisserie.fr/;catherine.giraud@cite-tapisserie.fr;33555663306;;"osm:museum;type:musee technique et industriel";;43856,5900462963;Q3330532
112328118;Cité Nature;;Rue de la Piscine;62000;Arras;France;fr;50.2980441;2.7775765317349994;;;;;osm:museum;;44232,5511574074;
317671337;Cité souterraine de Naours;;;80260;Naours;France;fr;50.0343981;2.2813518;http://citesouterrainedenaours.fr;;;;osm:museum;;43858,6703356481;
6548929685;Citeco: Cité de l'économie et de la monnaie;1;Place du Général Catroux;75017;Paris;France;fr;48.8818908;2.3106965;https://www.citeco.fr/;;;;"osm:museum;type:musee technique et industriel";Horaires;;
4322175131;Citévolution & Musée de la visitation;;Passage Moret;3000;Moulins;France;fr;46.5656674;3.3340128;;;;;osm:museum;;42577,9974652778;
2507732758;Citroen-Museum;;D 602;4120;Castellane;France;fr;43.8573729;6.4988604;;;;;"osm:museum;type:musee technique et industriel";;41571,9744675926;
62348803;Classe musée;;Rue Général André;69008;Lyon;France;fr;45.72654355;4.877258314312575;;;;;osm:museum;;40742,4113541667;
1976544251;Clocher de l'Église Saint-Médard;;Chemin du Prieuré;49150;Baugé-en-Anjou;France;fr;47.5952291;-0.1839772;http://chevire.com/tourisme_et_culture.htm;;33241901207;;osm:museum;;43738,8768634259;Q3583264
70568938;Cloches Paccard;;Route de Piron;74320;Sevrier;France;fr;45.84426605;6.150809346919351;http://www.paccard.com/musee/;;;;osm:museum;;42234,7863657407;
5825880177;Cloître de l'abbaye et Salle du trésor;;Rue de l'Hôtel de Ville;40500;Saint-Sever;France;fr;43.759241;-0.5741858;http://www.landes-chalosse.com/;;;;"osm:museum;art:architecture";;43323,968275463;
225666369;Cloître Saint-Gatien dit de la Psalette;7;Rue de la Psalette;37000;Tours;France;fr;47.3958664;0.6940454493563322;;;;;osm:museum;;42743,5588310185;Q2979785
327059384;Closerie Falbala;;Chemin dans le Bas des Clos;94520;Périgny;France;fr;48.693623;2.5489738064639056;;;;;osm:museum;;43406,1347106481;Q2979654
240781259;CMCF Oignies;;Avenue des Sports;62590;Oignies;France;fr;50.4724785;2.996550180094787;http://www.cmcf-oignies.fr/;;;;osm:museum;;43710,7345486111;Q3079574
160235039;Cneai;;Quai Wattier;78400;Chatou;France;fr;48.88987645;2.1631666031836447;http://cneai.com/;cneai@cneai.com;33139524535;;osm:museum;;44095,9958101852;Q17175770
2526898729;Collection des minéraux - Jussieu;;Rue des Fossés Saint-Bernard;75005;Paris;France;fr;48.847599;2.3548138;;;;;"osm:museum;type:musee d'histoire naturelle";;44196,5256018518;
83774997;Collection Lambert;5;Rue Violette;84000;Avignon;France;fr;43.944786449999995;4.804030474141223;http://www.collectionlambert.com/;information@collectionlambert.com;33490165620;;"osm:museum;art:art contemporain;type:fondation";Musée ouvert en 2000 par Yves Lambert pour partager sa collection d'art privée avec le public.;44135,9005671296;Q19437859
8308499117;Collection Minéraux et Fossiles Cutona-Prado;;Rue des Placettes;7700;Saint-Martin-d'Ardèche;France;fr;44.301827;4.5657688;;;;;"osm:museum;type:musee d'histoire naturelle";;44206,5796875;
2264574279;Collection Roux;;Chemin de Ronde;6230;Villefranche-sur-Mer;France;fr;43.7011297;7.3109172;http://villefranche-sur-mer.fr/;;33493763327;;osm:museum;;43884,7853819444;
297871930;Collégiale de La Romieu;;Rue du Docteur Lucante;32480;La Romieu;France;fr;43.9815254;0.4985552418017569;;;;;"osm:museum;art:architecture";;43223,7815856481;
68201554;Collégiale Notre-Dame;;Rue Notre-Dame;24600;Saint-Martial;France;fr;45.247163349999994;0.34264910354232025;;;;;"osm:museum;art:architecture";;42886,9221990741;Q22987803
145220928;Collégiale Saint-Martin;;Rue Saint-Martin;49051;Angers;France;fr;47.4690055;-0.5520413181415957;;;;;"osm:museum;art:architecture";;43572,5756828704;
7222735431;Colophon Librairie & Musée;3;Place Saint-Louis;26230;Grignan;France;fr;44.42011;4.9096537;https://colophon-grignan.fr;;33475465716;;"osm:museum;type:musee litteraire";;43879,6146759259;
144576260;Commonwealth War Graves Commission;;Rue Angèle Richard;62217;Beaurains;France;fr;50.25727355;2.7815657858468956;;;;;"osm:museum;type:musee d'histoire";;44167,6123148148;
137143724;Compa;;Rue Philarète Chasles;28300;Mainvilliers;France;fr;48.446882;1.476100424242424;;;;;osm:museum;;43806,9083912037;Q3221643
7696289459;Compagnie des guides de Saint-Gervais;114;Passage Mont-Joux;74170;Saint-Gervais-les-Bains;France;fr;45.8924342;6.7129631;;;33450477980;;osm:museum;;44020,98375;
7676602550;Comtesse de Ségur;;Rue de l'Abbé Roger Derry;61270;Aube;France;fr;48.7398734;0.5461896;;;;;osm:museum:gender:musee de femme;;44014,5056828704;
910390736;Conciergerie;;Escalier O;75001;Paris;France;fr;48.8559492;2.3460263;http://conciergerie.monuments-nationaux.fr/;;;;"osm:museum;type:musee d'histoire";;44187,2831134259;Q138101
7658962591;Conservatoire de la Fourche;26;Rue des Boisseliers;30610;Sauve;France;fr;43.943753;3.9480829;https://piemont-cevenol-tourisme.com/article-decouvrir/conservatoire-de-la-fourche/;;33466805446;;"osm:museum;type:musee technique et industriel";;44071,3729513889;
365837572;Conservatoire de l'objet;;Route de Salvagnac;81630;La Sauzière-Saint-Jean;France;fr;43.970121;1.6290951743659536;;;;;"osm:museum;type:musee technique et industriel";;43532,5576273148;
300861313;Conservatoire de l'Outillage du Pays des Bastides;;D 5;81630;Salvagnac;France;fr;43.9413994;1.7193994715442127;;;;;"osm:museum;type:musee technique et industriel";;42974,8603703704;
64464195;Conservatoire de Retz - Les vieux métiers;;Chemin du Conservatoire des Vieux Métiers;44320;Saint-Père-en-Retz;France;fr;47.207170399999995;-2.048380188877119;;;;;"osm:museum;type:musee technique et industriel";;43080,7588657407;
370964092;Conservatoire de Tastavy;;D 62B;;Nages;France;fr;43.64761335;2.7045663005436515;https://tastavy869476266.wordpress.com/presentation/;;;;"osm:museum;type:musee technique et industriel";;43945,7114351852;
6178341785;Conservatoire du santon provençal;14;Rond-Point des Arènes;13200;Arles;France;fr;43.6781148;4.6301021;https://www.facebook.com/Conservatoire-du-santon-proven%C3%A7al-1807905296116298/;conservatoire.santon.arles@gmail.com;33490934880;;"osm:museum;type:musee technique et industriel";;43832,9187847222;
25323908;Conservatoire du Vélo;18;Allée Gustave Prugnat;77250;Moret-Loing-et-Orvanne;France;fr;48.3747491;2.8227554086410613;https://www.ccmsl.fr/index.php/tourisme/musee-du-velo.html;;;;"osm:museum;type:musee technique et industriel";;43867,3715509259;
5825837319;Conservatoire rural de Gascogne;;Boulevard Victor Hugo;47700;Saint-Gervais;France;fr;44.3122405;0.0890126;;;;;"osm:museum;type:musee technique et industriel";;43333,6738310185;
3679607286;Construction du Musée des Beaux-Arts;37;Rue Gambetta;44000;Nantes;France;fr;47.2199108;-1.5476097;;;;;osm:museum;;43144,0998032407;
267023260;Côté sciences;13;Avenue Pasteur;33270;Floirac;France;fr;44.837138949999996;-0.531291496191406;http://www.cote-sciences.net;;33556861882;;"osm:museum;type:musee de sciences";;43029,1359837963;
53570552;Coutellerie de Nontron;;Place Paul Bert;24300;Nontron;France;fr;45.52541975;0.6607914805515938;;;33553562080;;"osm:museum;type:musee technique et industriel";;43895,8358680556;
623270981;Couvent des Cordeliers;;Chemin des Cordeliers;42190;Saint-Nizier-sous-Charlieu;France;fr;46.158488000000006;4.161214370192301;;;;;osm:museum;;43349,2388657407;Q22967388
5584032521;Croq'Alp;2;Route de l'Etroit Denté;74440;Mieussy;France;fr;46.1324144;6.5274332;;;;;osm:museum;;44129,5761458333;
159896046;Crypte Archéologique du Parvis Notre-Dame;;Parvis Notre-Dame - Place Jean-Paul II;75004;Paris;France;fr;48.85354265;2.348198116376467;http://crypte.paris.fr/;;33155425010;;"osm:museum;art:art medieval;type:musee d'architecture";;43639,7265972222;Q3005760
3831836304;Cuisines;;Allée des Deux Trianons;78000;Versailles;France;fr;48.814992;2.109106;;;;;osm:museum;;43989,6926273148;
4542764490;Cyrnos palace;;Cours du Général Leclerc;2000;Ajaccio;France;fr;41.9171092;8.728685;;;;;osm:museum;;42915,6881597222;
6345209974;David Pluskwa Contemporary Art;53;Rue Grignan;13006;Marseille;France;fr;43.291799;5.3758261;;;;;"osm:museum;art:art contemporain";;43542,6624652778;
835274427;D-DAY EXPERIENCE;;Rue du Bel Esnault;50500;Saint-Côme-du-Mont;France;fr;49.3293209;-1.2684332401707055;;;;;osm:museum;;44051,6501736111;
270492594;DDay Omaha Beach;;Rue de la Hérode;14710;Vierville-sur-Mer;France;fr;49.3751823;-0.9086043;;;;;"osm:museum;type:musee d'histoire";;39614,7691435185;
195200212;D-Day-Museum;;Route d'Omaha Beach;14710;Colleville-sur-Mer;France;fr;49.34722549999999;-0.8508185000000028;;;;;"osm:museum;type:musee d'histoire";;43296,9018865741;
372596917;Dead Man's Corner Museum;;D 974;50500;Saint-Côme-du-Mont;France;fr;49.328701;-1.268753035714286;;;;;osm:museum;;43047,8112384259;
2192425527;Des pierres et des hommes : Espace archéologique Pierre Borrione;;Montée de Saint-Sigismond;73210;Albertville;France;fr;45.5579427;6.6498229;http://www.laplagne-vallee.com;;33479556700;;"osm:museum;art:prehistoire;type:musee archeologique";;43939,7355208333;
72694578;DIDAM;6;Quai de Lesseps;64100;Bayonne;France;fr;43.495934649999995;-1.4718907652808695;https://didam.bayonne.fr/;;;;osm:museum;;44154,8206134259;
5438199098;Diorama;;Escaliers Louis XIV;83570;Cotignac;France;fr;43.5201798;6.146569;;;;;osm:museum;;43157,819525463;
695536418;Distillerie de lavande Les Agnels;;D 113;84499;Apt;France;fr;43.8539548;5.3858213;https://www.lesagnels.com/;;33490047700;;"osm:museum;type:musee technique et industriel";;44014,6840509259;
6022319068;Dock 713;;Place de la Grève;71160;Digoin;France;fr;46.4799644;3.9758425;http://www.digoin.fr/dock713;jpinheiro@ville-digoin.fr;33385537826;;osm:museum;;43845,6648263889;
1960905358;Domaine de Banizette;;D 59;;La Nouaille;France;fr;45.866396;2.0687146;;;;;osm:museum;;41194,760462963;
126077506;Domaine de Découverte de la Vallée d'Aulps;;Route de l'Abbaye;74430;Saint-Jean-d'Aulps;France;fr;46.2420795;6.649124249999998;https://www.abbayedaulps.fr/;;;;osm:museum;;43984,5067592593;
99631486;Domaine de Malagar;;Route de Malagar;33490;Saint-Maixant;France;fr;44.5798695;-0.2390822602023888;;;;;osm:museum;;43110,9531828704;Q3034482
117074446;Domaine des Saveurs - Les Planons;;Aire du Musée de la Bresse;1380;Saint-Cyr-sur-Menthon;France;fr;46.28250395;4.983976608646376;http://patrimoines.ain.fr/n/musee-de-la-bresse-domaine-des-planons/n:810;;33385363122;;osm:museum;;43892,5677083333;
64746008;Donation Albers-Honegger;;Avenue de Grasse;6370;Mouans-Sartoux;France;fr;43.62122665;6.969373385955271;;;;;osm:museum;;43154,9471759259;
4000549857;Donation Amilcar Zannoni;;Rue d'Angleterre;54660;Moutiers;France;fr;49.2310427;5.9657541;;;;;osm:museum;;42411,5395949074;
63463937;Donjon de Gouzon;;Rue Saint-Pierre;86300;Chauvigny;France;fr;46.570713850000004;0.64872862380585;;;33549464748;;osm:museum;;43029,1345601852;Q22955872
108214013;Donjon- Palais;;Rue de la Roche;14700;Falaise;France;fr;48.893539000000004;-0.2049730536846986;https://www.chateau-guillaume-leconquerant.fr/;;;;osm:museum;;43528,9545949074;
7668454403;Du système solaire aux galaxies;;Chemin de Saint-Raby;30100;Alès;France;fr;44.1299326;4.0685218;;;;;"osm:museum;type:musee de sciences";;44012,3031018519;
7159905660;Duduchothèque;68;Rue Léon Bourgeois;51000;Châlons-en-Champagne;France;fr;48.9602951;4.36581;;;;;osm:museum;;43856,3773263889;Q83686656
1722803126;Eburomagus, musée archéologique de Bram;2;Avenue du Razès;11150;Bram;France;fr;43.2438113;2.1161341;http://villedebram.fr/index.php/eburomagus;;33468789119;;"osm:museum;art:prehistoire;type:musee archeologique";;43795,5484606481;Q3279652
1300128996;Ecole de dessin Maurice Quentin de La Tour;;Rue Emmeré;2100;Saint-Quentin;France;fr;49.8500891;3.2843769;;;;;osm:museum;;40688,9411458333;
90808269;Ecole de médecine navale - Musée;;Rue Amiral Meyer;17300;Rochefort;France;fr;45.9423;-0.9649527857142841;http://www.musee-marine.fr/ecole-de-medecine-navale-rochefort;;;;osm:museum;;44028,6401273148;
4374362692;Ecole de musique de martel et musée d'oxellodunum;;Cour du Palais de la Raymondie;46600;Martel;France;fr;44.9367972;1.6089863;;;;;osm:museum;;44152,4782175926;
5202430967;Ecole de Musique S.I.A.M;49;Place Jean XXIII;49124;Saint-Barthélemy-d'Anjou;France;fr;47.4684324;-0.4948518;;;;;osm:museum;;43044,731400463;
3675600028;Ecole du Grez;;Rue Saint-Nicolas;72140;Le Grez;France;fr;48.1902877;-0.1529343;;;;;osm:museum;;42216,9786111111;
244134994;Ecole Élémentaire 1930;;Place de l'École;87330;Montrol-Sénard;France;fr;46.03116585;0.9584300042186003;;;;;osm:museum;;41604,5403935185;
164297804;Ecole-musée de Champagny;;Grande Rue;21440;Champagny;France;fr;47.45788765;4.763695615367164;;;;;osm:museum;;43806,7884259259;
2023574527;Ecomusé de la Vigne et du Vin, intérieur Bourghuignon 1900;;Rue de la Croix;89290;Quenne;France;fr;47.7762706;3.6491436;;;;;"osm:museum;type:ecomusee";;41234,3025694444;
5011238071;Ecomusée;;Route de Sens;71330;Saint-Germain-du-Bois;France;fr;46.752974;5.2448089;;;;;"osm:museum;type:ecomusee";;42950,4917939815;
4048595799;Ecomusée;;Impasse Ducis;73620;Hauteluce;France;fr;45.7501289;6.5849526;;;;;"osm:museum;type:ecomusee";;42437,7802662037;
6646766426;Ecomusée;;D 338;5310;La Roche-de-Rame;France;fr;44.7608824;6.5747286;;;;;"osm:museum;type:ecomusee";;43671,6519212963;
69466238;Ecomusée;;Route d'Ancelle;5260;Saint-Léger-les-Mélèzes;France;fr;44.643540200000004;6.199482207695679;;;;;"osm:museum;type:ecomusee";;42821,4750925926;
75485878;Ecomusée;;Rue du Pélican;85300;Sallertaine;France;fr;46.8589053;-1.958661258060197;;;;;"osm:museum;type:ecomusee";;43897,6091087963;
90945318;Ecomusée;30;Cours Melchior-Donnet;4200;Sisteron;France;fr;44.200942;5.942261210702718;;;;;"osm:museum;type:ecomusee";;44062,4211689815;
369802765;Ecomusée;;Rue Froide / Chaude;55210;Hannonville-sous-les-Côtes;France;fr;49.042711;5.6617809;;;;;"osm:museum;type:ecomusee";;40435,9018634259;
1414759574;Ecomusée;;Avenue de Charance;5000;Gap;France;fr;44.5775327;6.0559223;;;;;"osm:museum;type:ecomusee";;40782,6787615741;
4200119909;Ecomusée;;Rue du Général de Gaulle;56590;Groix;France;fr;47.6427255;-3.4479474;http://www.groix.fr/?mode=ecomusee-maison-kerlard;musee@groix.fr;33297868460;;"osm:museum;type:ecomusee";;44169,7696064815;Q3578601
120513260;Ecomusée;;Avenue de Saint-Hubert;44600;Saint-Nazaire;France;fr;47.2741635;-2.1985675610803392;https://www.saint-nazaire-tourisme.com/les-visites/les-sites-de-visite/ecomusee/;;;;"osm:museum;type:ecomusee";Histoire de Saint-Nazaire depuis le 19e siècle.;44036,9075810185;
172502943;Ecomusée;;Ruelle de la Bouroche;21400;Massingy;France;fr;47.906780999999995;4.595212698039218;;;;;"osm:museum;type:ecomusee";;44217,7337847222;
266246049;Ecomusée;;Lido de la Marana;20600;Furiani;France;fr;42.641394649999995;9.451350865661254;;;;;"osm:museum;type:ecomusee";;42091,0531481481;
249794317;Ecomusée - Refuge Regaud;;GR5;73210;Peisey-Nancroix;France;fr;45.5235894;6.836155949999999;;;;;"osm:museum;type:ecomusee";;44052,636712963;
261857352;Ecomusée d'Alsace;;Chemin des Remparts;68190;Ungersheim;France;fr;47.85306625;7.2871333354354615;http://www.ecomusee-alsace.fr/fr/;;;;"osm:museum;type:ecomusee";;43988,2879050926;Q273653
65007878;Ecomusée Daviaud du Marais vendéen;;Route du Daviaud;85550;La Barre-de-Monts;France;fr;46.87430855;-2.1027483456727802;http://www.ledaviaud.fr;;33251938484;;"osm:museum;type:ecomusee";;44197,0560185185;
7832852501;Ecomusée de Bulgnéville;;Rue Barbazan;88140;Bulgnéville;France;fr;48.2083939;5.8320775;;;;;"osm:museum;type:ecomusee";;44064,741712963;
7545098927;Ecomusée de Chaponnay;;Chemin de Pré Sindrut;69970;Chaponnay;France;fr;45.6250262;4.9321883;;;;;"osm:museum;type:ecomusee";;43972,6810763889;
4321308116;Ecomusée de Cuzals;;Route de Cahors;46330;Sauliac-sur-Célé;France;fr;44.5312828;1.6981967;https://musees.lot.fr/ecomus%C3%A9e-de-cuzals;cuzals@lot.fr;33565313643;;"osm:museum;type:ecomusee";;42577,7220023148;
3626846340;Ecomusée de la Baie du Mont-Saint-Michel;;Route de Routout;50300;Vains;France;fr;48.6640201;-1.4459819;;;;;"osm:museum;type:ecomusee";;43028,4423148148;Q3578603
1376429516;Ecomusée de la Brenne;;Chemin des Borderies;36300;Le Blanc;France;fr;46.6288575;1.0627002;;;;;"osm:museum;type:ecomusee";;40752,3050925926;
863551310;Ecomusée de la Chaume;;Sentier des Pointières - Sentier de la Mémoire;73720;Queige;France;fr;45.6946988;6.4406843;;;;;"osm:museum;type:ecomusee";;40406,8032407407;
160274753;Ecomusée de la combe de Savoie;;Circuit de Visite de l'Ecomusée de la Combe de Savoie;73460;Grésy-sur-Isère;France;fr;45.602764500000006;6.248912340152566;;;;;"osm:museum;type:ecomusee";;43030,6820833333;Q21481650
4034732590;Ecomusée de la ferme et des vieux métiers;;D 174;56460;Lizio;France;fr;47.8790509;-2.4925846;;;;;"osm:museum;type:ecomusee";;42430,6221296296;
101053564;Ecomusée de la Forêt;;Chemin de Roman;13120;Gardanne;France;fr;43.4709941;5.4517804973064585;http://ecomusee-foret.org/;;;;"osm:museum;type:ecomusee";;43308,4602430556;
2443429466;Ecomusée de la meunerie;;D 104;24600;Saint-Méard-de-Drône;France;fr;45.2539424;0.4163952;;;;;"osm:museum;type:ecomusee";;41519,8952893519;
2324535733;Ecomusée de la Noix du Périgord;;D 53;24250;Castelnaud-la-Chapelle;France;fr;44.8120563;1.1419072;http://www.ecomuseedelanoix.fr/;;33553596963;;"osm:museum;type:ecomusee";;44036,8878587963;
69066353;Ecomusée de la papéterie de Vaux;;D 80;24270;Payzac;France;fr;45.390503100000004;1.2454955212484267;http://ecomuseesdelauvezere.fr/accueil.html;;;;"osm:museum;type:ecomusee";;42955,2091319444;
67045504;Ecomusée de la Pêche et du Lac;2;Quai de Rives;74200;Thonon-les-Bains;France;fr;46.37509915;6.477561469053878;;;;;"osm:museum;type:ecomusee";;43598,9181944444;
266328283;Ecomusée de la Pelletrie;;Rue Bardelle;23260;Crocq;France;fr;45.869558;2.3687361650691763;;;;;"osm:museum;type:ecomusee";;42960,721099537;
5825928972;Ecomusée de la Pelote et du Xistera Pilotari;;Rue du Poste d'Incendie;64310;Saint-Pée-sur-Nivelle;France;fr;43.3550124;-1.5496194;https://www.en-pays-basque.fr/visite/ecomusee-de-la-pelote-et-du-xistera-pilotari/;saintpeesurnivelle@otpaysbasque.com;33559541169;;"osm:museum;type:ecomusee";;44223,4784606481;
7694543877;Ecomusée de la Petite Couère;;;49520;Segré-en-Anjou Bleu;France;fr;47.7279402;-0.9003317;;;;;"osm:museum;type:ecomusee";Véhicules et matériel agricole anciens;44020,4775231481;
228215029;Ecomusée de la Pierre;;Rue du Bourg;64490;Sarrance;France;fr;43.0507875;-0.6016949745316674;http://ecomusee.vallee-aspe.com/eco-musee-de-la-vallee-d-aspe_sarrance_12_fr.html;;;;"osm:museum;type:ecomusee";;42919,5043981482;
494253854;Ecomusée de la Pomme et du Cidre;;Route de la Briqueterie;76110;Bretteville-du-Grand-Caux;France;fr;49.6561385;0.3785581;;;;;"osm:museum;type:ecomusee";;40068,7850578704;
2411834814;Ecomusée de la ruralité;;D 54;43490;Arlempdes;France;fr;44.8657272;3.9226826;;;33471571700;;"osm:museum;type:ecomusee";;43560,5234953704;
1707299324;Ecomusée de la Sée;;D 911;50150;Brouains;France;fr;48.7235076;-0.9821716;;;;;"osm:museum;type:ecomusee";;41007,7605324074;
5095348625;Ecomusée de la Soie;;Rue Centrale;7150;Labastide-de-Virac;France;fr;44.351795;4.4010698;https://www.chateaudesroure.com/la-magnanerie-et-la-soie-du-chateau-des-roure-a-labastide-de-virac.html;;;;"osm:museum;type:ecomusee";;44207,9547685185;
438817475;Ecomusée de la Truffe;;Route des Truffières;24420;Périgueux;France;fr;45.305868950000004;0.8732475692452066;;;;;"osm:museum;type:ecomusee";;43086,4067592593;
227597873;EcoMusée de la Vigne et du vin;;Cours du Général de Gaulle;33170;Gradignan;France;fr;44.7607353;-0.6205747069424312;http://www.ville-gradignan.fr/menu-principal/loisirs-culture-sport/lecomusee-de-la-vigne-et-du-vin/;;33556890079;;"osm:museum;type:ecomusee";;43026,1562384259;
86007998;EcoMusée de la Vigne et du vin;;Rue Osco Manosco;4860;Pierrevert;France;fr;43.8110145;5.748050311682151;;;;;"osm:museum;type:ecomusee";;42570,5302777778;
4485553509;Ecomusée de l'Armagnac;;Route d'Estang;;Labastide-d'Armagnac;France;fr;43.9414964;-0.1754154;https://www.chateau-garreau.fr/;;;;"osm:museum;type:ecomusee";;43543,5723032407;
95358738;Ecomusée de l'Avesnois;;Place Maria Blondeau;59612;Fourmies;France;fr;50.017585350000004;4.042353744646732;http://www.ecomusee-avesnois.fr/;;;;"osm:museum;type:ecomusee";;43007,1936921296;Q3578600
1767801769;Ecomusée de l'Olivier;;Ancienne Route de Forcalquier;4130;Volx;France;fr;43.8902196;5.8429721;https://www.mb-1830.com/fr/ecomusee-olivier;;;;"osm:museum;type:ecomusee";;43990,9911921296;
4181941344;Ecomusée de Plouigneau;5;Rue de la Gare;29610;Plouigneau;France;fr;48.5667511;-3.7026676;http://www.ecomusee.plouigneau.bzh;contact@ecomusee-plouigneau.fr;33298798580;;"osm:museum;type:ecomusee";;44140,7028125;
449218730;Ecomusée de Saint-Dégan;;Rue Park Segal;56400;Brech;France;fr;47.7090601;-2.9935749;http://www.ecomusee-st-degan.fr;;33297576600;;"osm:museum;type:ecomusee";;44038,9219907407;
435473272;Ecomusée de Sauméjan;;Route d'Allons à Casteljaloux;47420;Sauméjan;France;fr;44.2369408;-0.002723179985001778;;;;;"osm:museum;type:ecomusee";Ecomusée dédié au travail des résiniers, à ses outils et au produits issus du gemmage.;42779,7280902778;
1388409449;Ecomusée des Appeaux et le la Faune;;Place Terre du Portail;84210;Saint-Didier;France;fr;44.0056842;5.1117902;http://www.appeaux-raymond.com;;33490661313;;"osm:museum;type:ecomusee";;44135,526724537;
1956401105;Ecomusée des Bruneaux;;Rue Chanzy;42700;Firminy;France;fr;45.3804997;4.2822893;http://www.chateaudesbruneaux.fr;;;;"osm:museum;type:ecomusee";;43003,2165162037;Q2971465
84696650;Ecomusée des Écoles Publiques de Lille;;Rue Frédéric Mottez;59000;Lille;France;fr;50.629503799999995;3.072938587319019;;;;;"osm:museum;type:ecomusee";;43649,6380092593;
2210062014;Ecomusée des Forges;;Mail François Giovannelli;56650;Inzinzac-Lochrist;France;fr;47.8238742;-3.2535283;http://www.inzinzac-lochrist.fr/Ecomusee-des-Forges.6681.0.html;;33297369821;;"osm:museum;type:ecomusee";;44038,9150462963;
93171144;Ecomusée des goémoniers;;Kenan Uhella;29880;Mogueran;France;fr;48.608345549999996;-4.507291783398063;;;;;"osm:museum;type:ecomusee";;43592,5822916667;
407500094;Ecomusée des Monts du Forez;7;Rue du Lavoir;42550;Usson-en-Forez;France;fr;45.391292449999995;3.9416201849367773;https://www.ecomusee-usson-en-forez.fr/;musee.forez@orange.fr;33477506887;;"osm:museum;type:ecomusee";Depuis sa création, l'Ecomusée valorise un patrimoine exceptionnel illustrant les traditions et les savoir-faire du Haut Forez et l'Auvergne. Au cœur d'une muséographie contemporaine, le musée présente 1500 m² d'expositions permanentes et temporaires.;44026,7771875;
65737922;Ecomusée des Pipes Ropp;;Rue des Pipes;25110;Baume-les-Dames;France;fr;47.341501;6.376787645044308;;;;;"osm:museum;type:ecomusee";;41263,891099537;
8313179049;Ecomusée des Terrasses;;D 233;7360;Saint-Michel-de-Chabrillanoux;France;fr;44.8467334;4.624416;https://ecomuseedesterrass.wixsite.com/ecomuseedesterrasses;;;;"osm:museum;type:ecomusee";;44207,9547569444;
4230252315;Ecomusée du Battant;;Rue du Moulin;88130;Charmes;France;fr;48.3763914;6.2884946;http://www.tourisme-charmes.fr/battant.htm;;33329660186;;"osm:museum;type:ecomusee";;43018,9571296296;
449086141;Ecomusée Du Bois Et De La Forêt (Scierie des Etouvières);;Route de Montremont;74230;Thônes;France;fr;45.87849825;6.297713428629244;http://ecomusee-bois-foret.com/;;33450321810;;"osm:museum;type:ecomusee";Ouverture aux visiteurs individuels et familles le mercredi de 14h30 à 17h30 départs en visites commentées à 14h45 et 16h15 Ouverture groupes du lundi au vendredi (sur réservation).;42666,735;
2744979748;Ecomusée du cheminot Veynois;3;Rue du Jeu de Paume;5400;Veynes;France;fr;44.5346708;5.8235409;www.ecomusee-cheminot.com;;;;"osm:museum;type:ecomusee";;43813,4822685185;Q3578609
126620592;Ecomusée du Clos Parchet;;Clos Parchet;74340;Samoëns;France;fr;46.101916900000006;6.7011379666666695;;;;;"osm:museum;type:ecomusee";;43985,5295601852;Q3068935
5760018493;Ecomusée du Flottage du bois;;Rue de la Porte d'Auxerre;58500;Clamecy;France;fr;47.4615697;3.5212241;https://www.ecomuseeduflottage.net/;;;;"osm:museum;type:ecomusee";;43295,4801273148;
313010160;Ecomusée du Grand Jardin;;Route d'Heugon;61470;Mortagne-au-Perche;France;fr;48.893246500000004;0.34141725773558274;https://www.le-grand-jardin.asso.fr/;;;;"osm:museum;type:ecomusee";;43529,2591782407;
1714229898;Ecomusée du Haut-Beaujolais;;Chemin des Pierres Plantées;69240;Marnand;France;fr;46.0380747;4.315875;http://musees.ouestrhodanien.fr;;33474640648;;"osm:museum;type:ecomusee";;43940,5848958333;
2184426664;Ecomusée du Haut-pays et des Transports;;Avenue de l'Authion;6540;Breil-sur-Roya;France;fr;43.9462304;7.516946;http://www.ecomusee-breil.fr;;;;"osm:museum;type:ecomusee";;43448,4560185185;Q3578611
3594227244;Ecomusée du Libournais;;D 244;33570;Montagne;France;fr;44.9301962;-0.1289887;;;;;"osm:museum;type:ecomusee";;42169,5431365741;
173360480;Ecomusée du maraîchage;;Parvis;33320;Eysines;France;fr;44.8811156;-0.6538205166666671;;;;;"osm:museum;type:ecomusee";;43793,5183101852;
2327845446;Ecomusée du Marais Salant;;Route de Loix;17111;Loix;France;fr;46.2205779;-1.4583045;http://www.marais-salant.com;;33546290677;;"osm:museum;type:ecomusee";;43034,5857407407;
614381321;Ecomusée du Mont Lozère;;D 20;48220;Florac;France;fr;44.3655806;3.7463973;http://www.mescevennes.com/visiter/ecomusee_mont_lozere.php;;33466458073;;"osm:museum;type:ecomusee";;43927,6027314815;
8313178919;Ecomusée du Moulinage;;Allée du Moulinage;7380;Chirols;France;fr;44.6881776;4.2820729;http://www.ecomuseechirols.fr/;;;;"osm:museum;type:ecomusee";Ecomusée;44207,9547569444;
219165799;Ecomusée du Pastoralisme;;D 241;64570;Lourdios-Ichère;France;fr;43.049875650000004;-0.6683641477781508;;;;;"osm:museum;type:ecomusee";;41392,0527199074;
233289696;Ecomusée du patrimoine des métiers;;Place Marius Richard Berlond;38260;Bossieu;France;fr;45.4172641;5.148437407542516;;;;;"osm:museum;type:ecomusee";;42149,6700231481;
385576801;Ecomusée du Pays de Châlus;;Boulevard du Fort;87230;Châlus;France;fr;45.6550535;0.9789422769556022;;;;;"osm:museum;type:ecomusee";;43935,8778587963;
416284085;Ecomusée du Pays de Fayence;;Ancienne Voie Ferrée;83440;Fayence;France;fr;43.625222;6.688034175675676;;;;;"osm:museum;type:ecomusee";;42497,1383564815;
192995465;Ecomusée du Pays de la Cerise;;Le Petit Fahys;70220;Lure;France;fr;47.90680895;6.4023357809508346;http://www.musees-des-techniques.org/fougerolles.php;;33384495250;;"osm:museum;type:ecomusee";;43940,5848958333;Q13517713
149921556;Ecomusée du pays de la Roudoule;;Placette de l'Europe;6260;Puget-Rostang;France;fr;43.9741388;6.918903152040816;http://www.roudoule.com;;33493051325;;"osm:museum;type:ecomusee";;44179,4418402778;Q3578617
178814913;Ecomusée du Pays de Rennes;;Route de Châtillon-Sur-Seiche;35230;Noyal-Châtillon-sur-Seiche;France;fr;48.07772335;-1.6663543566452403;http://ecomusee-rennes-metropole.fr/;;33299513815;;"osm:museum;type:ecomusee";;43800,461099537;Q3578616
4317391883;Ecomusée du Perche;;D 277;61130;Saint-Cyr-la-Rosière;France;fr;48.3249849;0.6549988;https://www.ecomuseeduperche.fr;;33233734806;;"osm:museum;type:ecomusee";;44035,7994675926;Q3578608
863551301;Ecomusée du Roselais;;Sentier des Pointières - Sentier de la Mémoire;73720;Queige;France;fr;45.693852;6.4382274;;;;;"osm:museum;type:ecomusee";;40406,8032291667;
207799176;Ecomusée du Véron;80;Route de Candes;37420;Savigny-en-Véron;France;fr;47.20943595;0.1244346983061503;http://www.ecomusee-veron.fr/;;33247580905;;"osm:museum;type:ecomusee";;43939,7543402778;Q28398844
1690546631;Ecomusée du Youdig;;Route de Kerhornou;29690;Brennilis;France;fr;48.3689727;-3.8644637;;;;;"osm:museum;type:ecomusee";;40993,7850462963;
5825837340;Ecomusée Gardarem;;Allée des Cabanes;33138;Lanton;France;fr;44.7154819;-1.0686774;https://www.gardarem.fr/;;;;"osm:museum;type:ecomusee";;43949,7968055556;
6096643283;Ecomusée La Javie Autrefois;;Rue du Mitan;4420;La Javie;France;fr;44.1740669;6.3512734;;;;;"osm:museum;type:ecomusee";;43431,8693171296;
4256068931;Ecomusée L'ancienne maison paysanne;;Rue de la Tournée;5260;Saint-Jean-Saint-Nicolas;France;fr;44.668333;6.2280016;;;;;"osm:museum;type:ecomusee";;42542,5139930556;
7798755263;Ecomusée Memoria Viva;;Aja Sottana;20250;Santa-Lucia-di-Mercurio;France;fr;42.3268701;9.2258755;https://www.aghjasuttana.com/l-ecomusee;;;;"osm:museum;type:ecomusee";;44053,7981018519;
328199865;Ecomusée Paysalp;628;Avenue de Savoie;74250;Viuz-en-Sallaz;France;fr;46.144351;6.409718695454545;;;;;"osm:museum;type:ecomusee";;43218,4754861111;
218472174;Ecomusée Textile;;Rue du Parc;68470;Husseren-Wesserling;France;fr;47.885102;6.996263986308496;;;;;"osm:museum;type:ecomusee";;41817,8037847222;
64215347;Écuries du Château;;Rue du Château;79100;Thouars;France;fr;46.97235575;-0.21756075602409716;;;;;osm:museum;;40467,6033564815;
5860556840;Écuries du Maréchal de Saxe;;Avenue du Roi;41250;Chambord;France;fr;47.6152479;1.52011;;;;;osm:museum;;43340,3943518518;
65290733;Église Notre-Dame des Jacobins;;Rue Richard Cœur de Lion;47000;Agen;France;fr;44.2029514;0.6133908739062529;;;;;"osm:museum;art:architecture";;42785,4333564815;Q19966932
41501851;Église Sainte-Anne;;Rue Sainte-Anne;21000;Dijon;France;fr;47.3177367;5.038114778284671;;;;;"osm:museum;art:architecture";;43999,4496180556;Q3584911
127498411;Église Saint-Jean-Baptiste;;Place du Château;71320;Toulon-sur-Arroux;France;fr;46.6939455;4.1383673035483834;;;;;"osm:museum;art:architecture";;40779,5139351852;
127201026;Église Saint-Nazaire;;Rue du Sénateur Turlier;71140;Bourbon-Lancy;France;fr;46.623926999999995;3.769138589843749;http://www.bourbon-lancy.com/musees_fr_02_07_02.html;;33385890940;;"osm:museum;art:architecture";;43940,5848958333;Q3583311
64244375;Église Saint-Pierre;;Avenue de la Bastille;19000;Tulle;France;fr;45.270193649999996;1.7738265491448075;;;;;"osm:museum;art:architecture";;43932,9848611111;Q22951166
251742041;Egouts de Paris;93;Quai d'Orsay;75007;Paris;France;fr;48.8626245;2.3025393;http://equipement.paris.fr/musee-des-egouts-5059;visite-des-egouts@paris.fr;33153682781;;"osm:museum;type:centre d'interpretation";La visite présente les entrailles de Paris de l'Antiquité à Belgrand, ingénieur du XIXe siècle, qui a conçu le réseau d'égouts actuel. Dans les galeries souterraines, sont évoqués le cycle de l'eau et le travail des égoutiers de Paris.;43876,6779861111;Q2654419
312726015;Electrodrome;11;Rue du Bourg;3260;Magnet;France;fr;46.212654549999996;3.5025878000000015;https://www.electrodrome.org/;;33470582799;;osm:museum;;43531,2142361111;
6206054761;Entre'Vue;;Avenue Général de Gaulle;69260;Charbonnières-les-Bains;France;fr;45.7840258;4.7359961;;;;;osm:museum;;43478,8244212963;
2739158255;Epace Schumann;;Avenue du Général de Gaulle;59910;Bondues;France;fr;50.6929967;3.0881519;;;;;osm:museum;;41722,4998958333;
2372996116;Escal'Atlantic;;Pont des Deux Siécles;44600;Saint-Nazaire;France;fr;47.2767722;-2.2026393;;;;;osm:museum;;41459,4119212963;
5830591851;Escale Guy de Larigaudie;;Rue Guy de Larigaudie;24600;Saint-Martin-de-Ribérac;France;fr;45.2297674;0.3597189;http://ansfac.org;;;;osm:museum;;43325,9349074074;
67782463;Espace Alain Gerbault;;Place des Quatre-Docteurs-Bucquet;53000;Laval;France;fr;48.06677685;-0.7705836420581949;;;33243568149;;osm:museum;;43912,8830439815;
7925349397;Espace André Debénath;;Rue Carnot;16220;Montbron;France;fr;45.6680303;0.498875;;;;;osm:museum;;44094,6364699074;
